empty_slots,free_bikes,id,latitude,longitude,name,timestamp,extra.banking,extra.ebikes,extra.last_updated,extra.payment-terminal,extra.renting,extra.returning,extra.slots,extra.station_id,extra.uid,extra.payment,network_id,extra.address
34,1,78ec9186acd18a0b30bd3156d24b9f8d,48.865983,2.275725,Benjamin Godard - Victor Hugo,2023-09-27T05:19:41.321000Z,False,0.0,1695790722,False,1,1,35,213688169.0,16107,,velib,
51,2,43c856353b954711f2bbee185a1f9d04,48.85375581057431,2.3390958085656166,André Mazet - Saint-André des Arts,2023-09-27T05:19:41.255000Z,True,0.0,1695790846,True,1,1,55,99950133.0,6015,['creditcard'],velib,
32,5,9b2700f3b19beb1dd9df2fd6a013789f,48.867872484749,2.3648982158072,Faubourg Du Temple - Republique,2023-09-27T05:19:38.914000Z,True,1.0,1695791070,True,1,1,38,312165511.0,11037,['creditcard'],velib,
19,1,80778031e1a033712bfc3a27a190d5dd,48.856451985395786,2.334851883351803,Beaux-Arts - Bonaparte,2023-09-27T05:19:39.546000Z,True,1.0,1695790987,True,1,1,20,210405211.0,6021,['creditcard'],velib,
21,0,f8f9ec30d28856f9b7fad103be9e4674,48.87929591733507,2.3373600840568547,Toudouze - Clauzel,2023-09-27T05:19:39.655000Z,True,0.0,1695790999,True,1,1,21,36255.0,9020,['creditcard'],velib,
6,12,59f355492ad3a784fdba53e67467b207,48.855907555969,2.3925706744194,Charonne - Robert et Sonia Delaunay,2023-09-27T05:19:40.963000Z,False,3.0,1695790793,False,1,1,20,516709288.0,11104,,velib,
1,29,6e0dbb5b877eec618e2b40acdfcc6bb8,48.840855311763,2.3875549435616,Mairie du 12ème,2023-09-27T05:19:38.821000Z,False,2.0,1695791034,False,1,1,30,37815204.0,12109,,velib,
57,2,268880c2481e7aa03975a7f4ee985945,48.851296433665276,2.325061820447445,Square Boucicaut,2023-09-27T05:19:41.219000Z,True,2.0,1695790791,True,1,1,60,210566542.0,7003,['creditcard'],velib,
37,4,11d2a821689732b32a0b4178425a3189,48.851518815017,2.3436703160405,Harpe - Saint-Germain,2023-09-27T05:19:41.300000Z,True,0.0,1695791062,True,1,1,45,100769544.0,5001,['creditcard'],velib,
30,9,9468274d3c6d8dd8c367c4b8650c869e,48.881973298352,2.301132157445,Jouffroy d'Abbans - Wagram,2023-09-27T05:19:40.974000Z,True,5.0,1695791015,True,1,1,40,54000559.0,17026,['creditcard'],velib,
25,10,c9edcdf32809c955e2ab833381c149a2,48.88287775178599,2.287667370814871,Guersant - Gouvion-Saint-Cyr,2023-09-27T05:19:39.394000Z,True,1.0,1695791042,True,1,1,36,85043758.0,17041,['creditcard'],velib,
21,35,45c2573f9bb3d58a288af4247ff3f406,48.871044051984,2.3661044619878,Alibert - Jemmapes,2023-09-27T05:19:39.260000Z,True,3.0,1695791074,True,1,1,60,123095125.0,10013,['creditcard'],velib,
21,1,7d145bbd89111d7193b951dfc6c02487,48.874422773426545,2.3284685611724854,Caumartin - Provence,2023-09-27T05:19:39.393000Z,True,1.0,1695790970,True,1,1,22,129026597.0,9104,['creditcard'],velib,
16,8,ff7997b9155b49ebda0f3e7ea20e4d89,48.837525839067,2.3360354080796,Cassini - Denfert-Rochereau,2023-09-27T05:19:39.883000Z,True,5.0,1695790941,True,1,1,25,251039991.0,14111,['creditcard'],velib,
20,1,f0ced785f9435ff9284445a1897856e1,48.85165383178419,2.3308077827095985,Saint-Sulpice,2023-09-27T05:19:39.506000Z,True,1.0,1695790603,True,1,1,21,37874517.0,6003,['creditcard'],velib,
17,0,d1d88931b3ec2bdadebae98bce0a775d,48.853147816545,2.3263905197382,Raspail - Varenne,2023-09-27T05:19:38.632000Z,False,0.0,1695790607,False,1,1,18,210567545.0,7004,,velib,
21,1,8ab5dcca384aad21e3b083a30d6ae263,48.84389286531899,2.3519663885235786,Lacépède - Monge,2023-09-27T05:19:40.527000Z,True,1.0,1695790561,True,1,1,23,210403080.0,5110,['creditcard'],velib,
16,1,7d6ba3781c835c4a552b373689b71188,48.84708159081946,2.321374788880348,Saint-Romain - Cherche-Midi,2023-09-27T05:19:39.466000Z,False,1.0,1695790739,False,1,1,17,210561800.0,6108,,velib,
14,17,0e3c0f14de288ac43c5a8b0a1cbc33b9,48.91039875761846,2.3851355910301213,André Karman - République,2023-09-27T05:19:39.673000Z,False,9.0,1695791036,False,1,1,31,209063434.0,33006,,velib,
9,18,036b6154355561cef963080cc32a2dbd,48.81580226360801,2.376804985105991,Pierre et Marie Curie - Maurice Thorez,2023-09-27T05:19:39.664000Z,False,9.0,1695791071,False,1,1,27,94555589.0,42016,,velib,
40,8,d16fc1f39f76274493aa77c45f2b36e5,48.836022242886884,2.4708339950830287,Bois de Vincennes - Gare,2023-09-27T05:19:38.637000Z,True,0.0,1695790876,True,1,1,50,244498842.0,41301,['creditcard'],velib,
17,8,b5e0ce34d56d5a00d64947b6045b9fdc,48.835583838706,2.2325500845909,Silly - Galliéni,2023-09-27T05:19:40.901000Z,True,5.0,1695790830,True,1,1,25,43195240.0,21010,['creditcard'],velib,
36,11,6a847ac4b705e2863bba9460a0b320fe,48.835092787824,2.3534681351338,Le Brun - Gobelins,2023-09-27T05:19:40.292000Z,True,1.0,1695790975,True,1,1,48,66491398.0,13007,['creditcard'],velib,
14,7,ac090301d156f8658f2421b14e637615,48.879089,2.354235,Gare du Nord - Place de Valenciennes,2023-09-27T05:19:39.779000Z,True,2.0,1695790974,True,1,1,25,653062048.0,10152,['creditcard'],velib,
58,3,a497dc1ed4a61b01828f0f64ba00aec4,48.876116,2.288124,Grande Armée - Brunel,2023-09-27T05:19:41.207000Z,True,2.0,1695790682,True,1,1,62,207633746.0,17038,['creditcard'],velib,
12,6,a1608bb58dff0b09b90fc7a0f4955d83,48.794902381218904,2.3734183609485626,Génie - Mozart,2023-09-27T05:19:40.786000Z,False,6.0,1695790875,False,1,1,19,1333959209.0,44012,,velib,
9,6,77d33d7defdf65816fbd6a5919b0b299,48.84504716661511,2.3494647851273465,Thouin - Cardinal Lemoine,2023-09-27T05:19:39.454000Z,False,5.0,1695790966,False,1,1,17,210397939.0,5016,,velib,
17,24,75577927f1cca5915590bc2d46e1b5c8,48.8570414504784,2.37289470306807,Froment - Bréguet,2023-09-27T05:19:39.397000Z,True,1.0,1695790699,True,1,1,43,82405965.0,11025,['creditcard'],velib,
17,2,b36411fb0a33a59d977438de7a3dbd3e,48.84479928858768,2.329337755887181,Notre-Dame-des-Champs - Stanislas,2023-09-27T05:19:39.842000Z,True,2.0,1695790701,True,1,1,19,27414578.0,6006,['creditcard'],velib,
21,30,7268faf54f66d26bfcde7f0cf3396b50,48.83310149953933,2.299380004405976,Morillons - Dantzig,2023-09-27T05:19:39.395000Z,False,9.0,1695791046,False,1,1,52,213682736.0,15047,,velib,
52,18,2937695fcc7dc6bc7669a8f85fd6d90c,48.851315406715976,2.2919502854347233,Grenelle - Dr Finlay,2023-09-27T05:19:38.570000Z,True,2.0,1695791036,True,1,1,71,85008390.0,15028,['creditcard'],velib,
26,6,bf673f18227a42a5dcc3da272b83a8e9,48.879406604954,2.3034455627202988,Chazelles - Courcelles ,2023-09-27T05:19:38.592000Z,True,3.0,1695791047,True,1,1,35,80101533.0,17025,['creditcard'],velib,
21,13,fceca1139eb3598f85221418a2eed143,48.830981659316855,2.3481646925210953,Croulebarde - Corvisart,2023-09-27T05:19:41.012000Z,True,4.0,1695791010,True,1,1,34,54000581.0,13101,['creditcard'],velib,
34,7,ff22697fcb655df134aa23e633587ca6,48.871031137596,2.379056852114,Ramponeau - Belleville,2023-09-27T05:19:40.457000Z,True,2.0,1695790990,True,1,1,44,599135701.0,20143,['creditcard'],velib,
19,2,06a1142ebde3cb6346c4a4fc864c5dc2,48.82234096593411,2.327861653302471,Le Brix et Mesmin - Jourdan,2023-09-27T05:19:40.880000Z,False,2.0,1695790663,False,1,1,21,13105968.0,14108,,velib,
18,15,09d581adc5efda8a6e0c2eff61397cc2,48.86785,2.446748,Romainville - Vaillant-Couturier,2023-09-27T05:19:39.609000Z,False,9.0,1695790667,False,1,1,38,653208733.0,31024,,velib,
11,3,6eb8825f820d60b3d97416cf5aa6d06b,48.83823094269141,2.270506024360657,Général Martial Valin - Pont du Garigliano,2023-09-27T05:19:38.983000Z,False,3.0,1695790962,False,1,1,16,506455295.0,15068,,velib,
20,0,b72bbb7eb5c7086e574f95846674e2f6,48.79014780960843,2.43286281824112,Liberté - Vert-de-Maisons,2023-09-27T05:19:40.837000Z,True,0.0,1694836503,True,0,0,20,907054879.0,47007,['creditcard'],velib,
31,2,cf0dcc3cdde692e1fca56a31ff549fff,48.89792240854517,2.32851451022192,Porte de Saint-Ouen - Bessières,2023-09-27T05:19:40.167000Z,False,2.0,1695726891,False,1,1,42,129094535.0,17044,,velib,
23,9,eaa35ac247bece89efd3383bc2c7dad4,48.853844054333514,2.289705348222022,Bir Hakeim,2023-09-27T05:19:40.020000Z,True,2.0,1695790988,True,1,1,33,27415224.0,15026,['creditcard'],velib,
6,23,c9326a3111d3c44e3ac8114db5b2a677,48.79628807093802,2.417212128639221,Jules Guesde - Pont du Port à l'Anglais,2023-09-27T05:19:38.750000Z,True,2.0,1695790971,True,1,1,30,499303158.0,44017,['creditcard'],velib,
40,1,5349a87a2dc217a11ab002391c09f021,48.89594736851349,2.381133802246315,Cambrai - Benjamin Constant,2023-09-27T05:19:41.090000Z,False,0.0,1695791036,False,1,1,43,54000612.0,19033,,velib,
27,2,5cc8f47571f1fbacc37b07b700ded02e,48.882428,2.314002,De Toqueville - Terrasse,2023-09-27T05:19:39.563000Z,True,0.0,1695790682,True,1,1,30,88230992.0,17048,['creditcard'],velib,
9,15,1d59cee64768545a2f6672df4527d9c5,48.840579923690115,2.2584119439125065,Michel-Ange - Parent de Rosan,2023-09-27T05:19:40.064000Z,False,4.0,1695790896,False,1,1,26,27415302.0,16118,,velib,
14,11,90f695e0c1794b98ef78df609ee1af83,48.84884147189881,2.426325418925233,Lagny - Victor Basch,2023-09-27T05:19:39.541000Z,True,6.0,1695791025,True,1,1,26,102747146.0,43002,['creditcard'],velib,
10,8,ef6f3e60f8625a95574d4ba5cf0db701,48.8804934032465,2.39806417375803,Serrurier,2023-09-27T05:19:38.596000Z,False,7.0,1695790839,False,1,1,18,42950839.0,19027,,velib,
18,5,dcde9d0eedef52a437a0a6fbd1b4c19e,48.892648526839,2.2136941552162,Théâtre des Amandiers - Palais des sports,2023-09-27T05:19:38.571000Z,False,4.0,1695790787,False,1,1,23,653197324.0,92002,,velib,
18,6,6dfb5192fb139d203175e04219fea536,48.81807418981508,2.3267009854316716,Louis Lejeune - Barbès,2023-09-27T05:19:39.922000Z,False,4.0,1695790802,False,1,1,25,653132534.0,21216,,velib,
22,1,060b5cdb163a466a33c867a3d3d643ee,48.848951441614,2.3411329463124,Vaugirard - Monsieur le Prince,2023-09-27T05:19:40.387000Z,True,0.0,1695790994,True,1,1,26,210408693.0,6029,['creditcard'],velib,
14,8,76d95de2fa489b3287c50f7b8fa43992,48.78980918988166,2.3143940046429634,Rond-point du Dr Albert Schweitzer,2023-09-27T05:19:39.953000Z,False,2.0,1695790658,False,1,1,22,1057149522.0,22207,,velib,
30,1,146ba8cb83644c5f97a41aef5d403646,48.871417284355,2.3076787590981,Boétie - Ponthieu,2023-09-27T05:19:39.693000Z,True,0.0,1695790799,True,1,1,33,128986726.0,8050,['creditcard'],velib,
29,11,94426ad2d7f2d578154b9fc0741e50a6,48.888735896947,2.3469526693225,Custine - Ramey,2023-09-27T05:19:41.282000Z,True,7.0,1695790992,True,1,1,41,15433394.0,18015,['creditcard'],velib,
25,1,5c2cc3d86482f8eb7a2024c4c0a6c6a7,48.8693268535238,2.395084574818611,Pyrénées - Ménilmontant,2023-09-27T05:19:38.706000Z,False,1.0,1695790835,False,1,1,26,85123644.0,20035,,velib,
39,1,f6f2086e5cd5a502faa6b5428626721c,48.86785342111862,2.349364310503006,Caire - Dussoubs,2023-09-27T05:19:39.825000Z,False,1.0,1695790791,False,1,1,40,27414512.0,2017,,velib,
17,0,ed48e8a94a3b5e6f3cd48e0ecce358a5,48.879161,2.343698,Tour d'Auvergne - Rodier,2023-09-27T05:19:39.952000Z,False,0.0,1695790643,False,1,1,17,210580039.0,9008,,velib,
52,5,eb3335b8528855e4669ddd490118c97f,48.861411014652,2.3201214185208,Assemblée Nationale,2023-09-27T05:19:38.999000Z,True,1.0,1695790653,True,1,1,63,210568512.0,7009,['creditcard'],velib,
18,1,d41d50eb287ee527848755b3a31ee559,48.879355,2.358379,Dunkerque - Alsace,2023-09-27T05:19:39.164000Z,False,1.0,1695790988,False,1,1,20,210585225.0,10027,,velib,
4,9,9eca9e39a4bd2df5f0a272db2c944f15,48.8214169,2.342167,Liard - Amiral Mouchez,2023-09-27T05:19:40.540000Z,True,4.0,1695790563,True,1,1,14,35149611.0,14013,['creditcard'],velib,
32,3,1543bd52c06ef5bdb4d4b5ee34cc486a,48.8351212784276,2.385534569621086,Gabriel Lamé,2023-09-27T05:19:38.897000Z,True,3.0,1695790919,True,1,1,36,55927887.0,12031,['creditcard'],velib,
18,2,5cb98cdf20ab69563923aed8167ae8a9,48.859091104741,2.3185685276985,Las Cases - Bourgogne,2023-09-27T05:19:39.704000Z,False,2.0,1695791019,False,1,1,22,210570888.0,7011,,velib,
17,8,fe5431d0976be760a51e34e21383f0f9,48.88949630486821,2.333393658804396,Félix Ziem - Armand Gauthier,2023-09-27T05:19:39.186000Z,False,5.0,1695790953,False,1,1,25,129107656.0,18111,,velib,
5,33,ee5f8237d94f94862fac6e27c8f1c348,48.894799816683985,2.318705212173216,Jonquière - Docteur Paul Brousse,2023-09-27T05:19:41.159000Z,True,0.0,1695790959,True,1,1,40,129088667.0,17010,['creditcard'],velib,
26,1,67447a40039cae5e6f47f8ffb8fd2b26,48.87320440102894,2.323658830743138,Square Louis XVI,2023-09-27T05:19:39.992000Z,True,0.0,1695791038,True,1,1,29,128930462.0,8016,['creditcard'],velib,
21,1,55d766b2cfd797e5962b8a5133cb9a33,48.78448485079149,2.35908430069685,Youri Gagarine - Karl Marx,2023-09-27T05:19:39.225000Z,False,1.0,1695790779,False,1,1,22,1057228658.0,48003,,velib,
17,4,99678a6a0780e479f54c08a1305d2a2a,48.86106902949534,2.2730283066630363,Octave Feuillet - Albéric Magnard,2023-09-27T05:19:40.748000Z,False,3.0,1695790812,False,1,1,21,230873471.0,16110,,velib,
25,0,a5816027f41b2799e91b665c95e1938d,48.8978867,2.3458001,Ney - Porte de Clignancourt,2023-09-27T05:19:40.648000Z,False,0.0,1695790889,False,0,0,25,507934805.0,18134,,velib,
23,0,18d63d7f1b3c402d11816c5f07658e57,48.844730256132095,2.341923944866407,Gay Lussac - Saint-Jacques,2023-09-27T05:19:41.140000Z,False,0.0,1695790488,False,1,1,24,7254.0,5005,,velib,
16,30,27c45001b48e6b0c3965b412f618d813,48.8468428626593,2.452062070369721,Place Jean-Spire-Lemaître,2023-09-27T05:19:39.169000Z,True,10.0,1695791068,True,1,1,50,129164969.0,43009,['creditcard'],velib,
24,3,9e88938078e837e55a03cf6193682de5,48.874750203956566,2.301771435325988,Place Georges Guillaumin,2023-09-27T05:19:40.874000Z,False,0.0,1695790843,False,1,1,29,128989986.0,8053,,velib,
16,1,4264d28f99b033dcae11a325376f75b1,48.87759897050706,2.348463758826256,Bellefond - Poissonnière,2023-09-27T05:19:40.394000Z,True,1.0,1695791043,True,1,1,17,129004826.0,9001,['creditcard'],velib,
15,6,67b871714c5747e4b27c22703cf13013,48.88655580065981,2.288640439510346,Jean Oestreicher - Porte de Champerret,2023-09-27T05:19:39.192000Z,False,5.0,1695791068,False,1,1,21,518825709.0,17032,,velib,
14,8,ffebae556fb025e5425befa8f1a43308,48.87935941942529,2.366596162319184,Alexandre Parodi - Quai de Valmy,2023-09-27T05:19:40.513000Z,True,2.0,1695791066,True,1,1,24,911767210.0,10162,['creditcard'],velib,
13,1,a41c910adee6a07881812ef4abcd1e5d,48.851419978983,2.3097044974566,Ségur - d'Estrées,2023-09-27T05:19:39.322000Z,False,0.0,1695790974,False,1,1,19,128887067.0,7018,,velib,
12,13,415e59bd5a8ba4b267518de1c81f0cd2,48.8761373390584,2.3680844979417,Granges aux Belles,2023-09-27T05:19:40.987000Z,False,0.0,1695791062,False,1,1,27,54000565.0,10115,,velib,
1,61,8a5aed60fc8805d38fdc6f00088538bf,48.82435782216384,2.377065159380436,Regnault - Patay,2023-09-27T05:19:39.769000Z,False,4.0,1695790794,False,1,1,63,1057296253.0,13118,,velib,
38,5,0f3ac6a9fb5eb3f43e1a0c1980f05f4a,48.877753,2.327339,Gare Saint-Lazare - Place de Budapest,2023-09-27T05:19:40.488000Z,True,2.0,1695790676,True,1,1,44,210581084.0,9035,['creditcard'],velib,
44,1,894197f05300286868f6ed8858a881c1,48.83940266673835,2.32971478253603,Edgar Quinet - Raspail,2023-09-27T05:19:39.298000Z,True,0.0,1695790990,True,1,1,46,205047993.0,14002,['creditcard'],velib,
26,9,da851a915c41eb46abc46b738d798530,48.891457726153774,2.348636478060487,Clignancourt - Ordener,2023-09-27T05:19:39.231000Z,True,3.0,1695791062,True,1,1,35,102311820.0,18024,['creditcard'],velib,
19,2,4c195e576b892f6d3350a36e59a52ff3,48.880726,2.351464,Dunkerque - Rocroy,2023-09-27T05:19:39.378000Z,False,2.0,1695791054,False,1,1,24,210586093.0,10029,,velib,
13,1,012b17de09d1300f63c8b63067b39063,48.879223,2.349147,Abbeville - Faubourg Poissonnière,2023-09-27T05:19:41.152000Z,True,1.0,1695790584,True,1,1,14,210574471.0,9002,['creditcard'],velib,
17,2,c6a39a31a86611c31fb3c34bae46e8f5,48.8462904,2.3521495,Boulangers - Cardinal Lemoine,2023-09-27T05:19:39.869000Z,True,2.0,1695790846,True,1,1,20,72765603.0,5022,['creditcard'],velib,
7,4,de40d516ab36b574ee1990157165d4ef,48.87219,2.329423,Boudreau - Auber,2023-09-27T05:19:41.218000Z,False,4.0,1695790840,False,1,1,14,210582921.0,9106,,velib,
21,10,b12be68f3b9115784f498398517c80a0,48.875642647477,2.3594588041306,Gare de l'Est - Faubourg-Saint-Martin,2023-09-27T05:19:40.340000Z,True,2.0,1695791065,True,1,1,32,369644630.0,10161,['creditcard'],velib,
48,0,782947ad7a5d7a2455bb62bb3f1647b9,48.87973954830735,2.288012132048607,Pereire - Ternes,2023-09-27T05:19:38.983000Z,True,0.0,1695790678,True,1,1,48,43255030.0,17040,['creditcard'],velib,
26,1,557a0531c4372aa3abe987d7052a8cc7,48.88320784122797,2.3308449949028507,Douai - Bruxelles,2023-09-27T05:19:39.022000Z,False,1.0,1695791016,False,1,1,27,129025451.0,9038,,velib,
37,4,0b0c4f4ae8c238e0b7eaad2c9a2a9325,48.856691550115315,2.306646779179573,Champ de Mars - Cler,2023-09-27T05:19:39.942000Z,True,0.0,1695790863,True,1,1,41,128889359.0,7020,['creditcard'],velib,
10,2,fe6481666c6964991af2fec0b5573fd3,48.857058739111,2.3417982839439,Quai de l'Horloge - Pont Neuf,2023-09-27T05:19:41.304000Z,True,2.0,1695791013,True,1,1,17,323616530.0,1001,['creditcard'],velib,
20,4,aa7ead9254a3eeddc94f3a0c1f5401f1,48.874777677621296,2.326515804784655,Gare Saint-Lazare - Isly,2023-09-27T05:19:39.505000Z,True,4.0,1695790506,True,1,1,27,128920403.0,8009,['creditcard'],velib,
15,2,fe416377651bc1716038b396302b77e0,48.883667,2.395733,Ambroise Rendu - Porte Brunet,2023-09-27T05:19:40.712000Z,False,2.0,1695791065,False,1,1,17,208795867.0,19105,,velib,
2,57,6cbe15611593e1cffd0a9abf54aeffc8,48.845515089794,2.3726498446286,Gare de Lyon - Place Louis Armand,2023-09-27T05:19:40.291000Z,True,29.0,1695791071,True,1,1,60,66491397.0,12151,['creditcard'],velib,
15,1,a9bc03f19bd965f2edd21e4292c15c67,48.857615678565,2.3358313530377,Institut de France,2023-09-27T05:19:40.664000Z,True,1.0,1695791000,True,1,1,17,6296.0,6001,['creditcard'],velib,
17,6,d69e6c49d6c6695f57da105b15f25945,48.8978765,2.3230632,Porte Pouchet-Bessières,2023-09-27T05:19:40.318000Z,False,4.0,1695790884,False,1,1,23,521393180.0,17008,,velib,
22,1,cd91e4c9d707d0bebb4bd6677305110e,48.838683941628375,2.3110422492027287,Vigée-Lebrun - Anselme Payen,2023-09-27T05:19:39.821000Z,False,0.0,1695790591,False,1,1,24,576188379.0,15112,,velib,
38,0,fd8468cc02da7b7af7e2595ecb6732c7,48.849063299501,2.3558086529374,Institut du Monde Arabe - Saint-Germain,2023-09-27T05:19:40.536000Z,True,0.0,1695790894,True,1,1,40,128882438.0,5020,['creditcard'],velib,
23,8,b88622fa2683838b0565e7e0be139d6e,48.856502977696,2.2931787543289,Octave Gréard - Tour Eiffel,2023-09-27T05:19:40.753000Z,True,4.0,1695790812,True,1,1,33,128915891.0,7025,['creditcard'],velib,
21,3,c6cd3ee1a82b246c5cb86035faa68d1a,48.862923800596,2.4155035614967,Château - République,2023-09-27T05:19:41.344000Z,False,2.0,1695790924,False,1,1,26,82567101.0,31706,,velib,
22,10,f4eef18fca1505fcf19873c2f29849bd,48.8847601,2.3534657,Chartres - La Charbonnière,2023-09-27T05:19:39.419000Z,False,3.0,1695790948,False,1,1,34,230877798.0,18107,,velib,
25,3,e2671fe4b8fcccbbeeaaab7ef7ec9ff0,48.87745567681383,2.309694221419506,Lisbonne - Monceau,2023-09-27T05:19:38.803000Z,True,1.0,1695790950,True,1,1,33,82379648.0,8036,['creditcard'],velib,
12,3,8d5e18ea3b29e7080dc930aeea34b28d,48.88006587474148,2.3310810327529907,Moncey - Blanche,2023-09-27T05:19:40.551000Z,False,1.0,1695790941,False,1,1,17,129021753.0,9028,,velib,
20,3,27bde1c8b2832e7f88b2c34a98ec4404,48.876719895109,2.344393021853951,Rochechouart lamartine,2023-09-27T05:19:39.741000Z,True,2.0,1695790645,True,1,1,24,129011497.0,9010,['creditcard'],velib,
5,7,c112a52278dd51eab5e8e5714fe9ec8e,48.87748519186726,2.3660067468881607,Jemmapes - Ecluses Saint-Martin,2023-09-27T05:19:40.841000Z,True,4.0,1695790824,True,1,1,15,35642049.0,10025,['creditcard'],velib,
11,12,c923203a02ef3af397694f3c550a182c,48.88917613743794,2.3833653330802917,Thionville - Ourcq,2023-09-27T05:19:40.887000Z,True,4.0,1695790940,True,1,1,24,50191171.0,19015,['creditcard'],velib,
39,8,bdb86d14e2bd6354e7aa1e7c7610acd4,48.881949,2.352339,Gare du Nord - Hôpital Lariboisière,2023-09-27T05:19:38.787000Z,False,4.0,1695791004,False,1,1,49,210740080.0,10107,,velib,
22,17,03da963d41687bb7670f411eab74036c,48.88896161855884,2.322528975094376,Legendre - Clichy,2023-09-27T05:19:40.650000Z,True,1.0,1695790854,True,1,1,40,129087587.0,17004,['creditcard'],velib,
20,2,c503eafcf1cc851ff3626fe92a7d0f9a,48.884492238407525,2.3703941702842717,Quai de la Seine,2023-09-27T05:19:40.334000Z,True,1.0,1695791070,True,1,1,24,213693511.0,19003,['creditcard'],velib,
15,3,226a0d91ca8223376402711fd4838710,48.870702423554306,2.358739863900845,Cité Riverin - Château d'Eau,2023-09-27T05:19:41.157000Z,True,2.0,1695791064,True,1,1,18,95845524.0,10008,['creditcard'],velib,
31,4,3cc2baaa200956820d5c8251505afd0e,48.848225572724,2.3502873256803,Mutualité,2023-09-27T05:19:39.172000Z,True,4.0,1695791011,True,1,1,37,37815993.0,5018,['creditcard'],velib,
32,0,e911d07b60f6a50248e5db3bb3e23668,48.87334627510507,2.337980867701675,Rossini - Laffitte,2023-09-27T05:19:40.888000Z,False,0.0,1695790558,False,1,1,33,129014600.0,9022,,velib,
39,0,0ee885234307805f3d12d98e8c016fa1,48.872010281270974,2.392039597034455,Pyrénées - Emmery,2023-09-27T05:19:40.797000Z,False,0.0,1695790841,False,1,1,40,102324803.0,20042,,velib,
8,32,d40c98f308326f0b185cf41bb9a394ac,48.847208456061,2.3861273378134,Diderot - Reuilly,2023-09-27T05:19:39.110000Z,True,1.0,1695790951,True,1,1,44,912377361.0,12161,['creditcard'],velib,
16,17,acdd3a2005f56b2d29fe9be35e2a7b17,48.862147844548,2.3772348091006,Saint-Ambroise - Parmentier,2023-09-27T05:19:40.997000Z,True,1.0,1695791065,True,1,1,38,54000569.0,11027,['creditcard'],velib,
34,5,768ddc2b2ca4a55976019dd0b9f6433d,48.88022154052015,2.2854680567979813,Belidor - Gouvion-Saint-Cyr,2023-09-27T05:19:38.595000Z,True,3.0,1695790968,True,1,1,39,80216231.0,17043,['creditcard'],velib,
15,6,6ab04d33c2786fdee83912ebd000afe1,48.836395736424,2.2784192115068,Place Balard,2023-09-27T05:19:38.737000Z,True,4.0,1695790931,True,1,1,22,34742973.0,15056,['creditcard'],velib,
5,12,87f0c36c975001dfef7afda904d36892,48.88192765861766,2.392586767673493,Place de Rhin et Danube,2023-09-27T05:19:38.695000Z,False,11.0,1695790695,False,1,1,17,336511521.0,19026,,velib,
18,4,cfe8facd91fe4fcbc173fe6b051e0524,48.85507930579506,2.3733686318721463,Roquette - Thiéré,2023-09-27T05:19:39.615000Z,True,2.0,1695790824,True,1,1,23,129043651.0,11002,['creditcard'],velib,
32,2,b11592abb8ce4ddfe3e9739a7bc5cd4e,48.874746047357135,2.3082953318953514,Berri - Haussmann,2023-09-27T05:19:41.269000Z,False,1.0,1695790865,False,1,1,35,39296638.0,8034,,velib,
6,40,7caaf63216ae02be12a826198641e5a6,48.858688774062955,2.383553994571467,Saint-Maur - Roquette,2023-09-27T05:19:41.232000Z,True,2.0,1695791073,True,1,1,46,129048000.0,11023,['creditcard'],velib,
20,16,f696f217a77bc8b7e96864fee9ba937d,48.80889533774377,2.5382421165704727,11 Novembre 1918 - 8 Mai 1945,2023-09-27T05:19:39.300000Z,False,8.0,1695790864,False,1,1,36,1062250686.0,45003,,velib,
8,16,508b6b7baae451f439f9dd5486fba870,48.8687591,2.4329931,Place Du Général De Gaulle,2023-09-27T05:19:41.132000Z,False,14.0,1695791036,False,1,1,26,261987383.0,31009,,velib,
37,11,2f1849de3b0950efa3c1f6ff643e1dc3,48.84097491091973,2.264390252530575,Exelmans - Versailles,2023-09-27T05:19:39.671000Z,True,2.0,1695791051,True,1,1,49,82562556.0,16039,['creditcard'],velib,
13,7,5b5eb9e7584013b19ee1436863a9847f,48.88364782887555,2.2952447086572647,Pereire - Rennequin,2023-09-27T05:19:38.587000Z,True,1.0,1695790986,True,1,1,23,126050442.0,17030,['creditcard'],velib,
14,4,1bcceac18c43cbd011a06e94e834004a,48.837668272811,2.3448138346607,Port-Royal - Hôpital du Val-de-Grâce,2023-09-27T05:19:39.355000Z,True,3.0,1695790684,True,1,1,18,210749865.0,13001,['creditcard'],velib,
5,20,036690096dedbfd7f1935ac0092059fe,48.83761417037952,2.397253782195704,Claude Decaen - Cannebière,2023-09-27T05:19:40.201000Z,False,4.0,1695791065,False,1,1,27,27363489.0,12111,,velib,
6,4,22f639abbb0f8eec55bae6cb153ceef8,48.842524,2.364044,Gare d'Austerlitz,2023-09-27T05:19:40.470000Z,True,3.0,1695791069,True,1,1,14,210753033.0,13014,['creditcard'],velib,
10,2,dbb7e83a4d2d4319bffa00d41ab333c5,48.852804604940296,2.293077029857222,Desaix - Edgar Faure,2023-09-27T05:19:39.261000Z,True,2.0,1695790898,True,1,1,12,101763163.0,15067,['creditcard'],velib,
48,4,3d73de49edcca885c3a7853f26193b02,48.893923963057865,2.39790290594101,Delphine Seyrig - Général Leclerc,2023-09-27T05:19:41.351000Z,False,4.0,1695790976,False,1,1,53,205938683.0,19043,,velib,
37,1,55a74d7a373b87349702949cca7ba8ab,48.84702057165222,2.3464982619671075,Panthéon - Valette,2023-09-27T05:19:39.965000Z,False,1.0,1695790699,False,1,1,39,210399835.0,5032,,velib,
16,6,6d5f0ea757d3d4afdd55dfbee5e5c64e,48.8750898883217,2.3826304078102116,Square Simon Bolivar,2023-09-27T05:19:39.942000Z,False,5.0,1695790877,False,1,1,24,13718041.0,19101,,velib,
10,6,acd91d023955ffa2985c8862fa796cdd,48.875034655883944,2.359801238597928,Récollets - Square Villemin,2023-09-27T05:19:39.338000Z,False,2.0,1695791064,False,1,1,17,129034587.0,10016,,velib,
14,16,3b7771b8286349881fb9e5b67577eed5,48.86114216276092,2.367799618107727,Amelot - Saint-Sébastien,2023-09-27T05:19:40.446000Z,False,2.0,1695790755,False,1,1,30,813544903.0,11047,,velib,
35,5,8e9a06c5972efc20de0b1c9e42dd2483,48.85154484769,2.3146149516106,Saint-François-Xavier,2023-09-27T05:19:39.857000Z,True,1.0,1695790985,True,1,1,42,27414601.0,7014,['creditcard'],velib,
12,20,c3250e94d8848caf3f29646b63ca09a3,48.81411442356866,2.39090770483017,Place Marcel Cachin,2023-09-27T05:19:39.582000Z,True,4.0,1695791065,True,1,1,32,230952057.0,42014,['creditcard'],velib,
19,15,cd69b7db0fd7ebeee93947815fa06b25,48.82237977153955,2.4586871266365056,Pyramide - Ecole du Breuil ,2023-09-27T05:19:40.903000Z,False,2.0,1695790902,False,1,1,34,508042092.0,12128,,velib,
12,3,9b91251c38bc1e4e1879ad831cfedad9,48.8795431,2.3264628,Liège - Moscou,2023-09-27T05:19:40.408000Z,False,1.0,1695790715,False,1,1,17,42603855.0,8010,,velib,
37,15,26a2b9a78176ab057ac5b826aea3df83,48.86131452758348,2.440614402294159,Mairie de Montreuil,2023-09-27T05:19:39.630000Z,True,13.0,1695790790,True,1,1,52,818302209.0,31022,['creditcard'],velib,
52,5,d69467838ced5f3d7d6af24fe371de30,48.8667175,2.3692541,Richard Lenoir - Republique,2023-09-27T05:19:38.650000Z,True,1.0,1695790847,True,1,1,58,532054446.0,11113,['creditcard'],velib,
58,8,a31aed60ff2963c8bfe4ff747e3c8cca,48.8471116,2.3956204,Fabre d'Eglantine - Place de la Nation,2023-09-27T05:19:41.250000Z,True,5.0,1695790734,True,1,1,68,581480367.0,12157,['creditcard'],velib,
42,1,7f19f458f67464338660a1e2ade3c48c,48.886472466142,2.3328901827335,Cimetière de Montmartre,2023-09-27T05:19:38.582000Z,True,0.0,1695790928,True,1,1,43,102309973.0,18003,['creditcard'],velib,
17,17,912eb7094e4ad06410e858d6cf1c2f35,48.85708641027236,2.3984125256538396,Bagnolet - Orteaux,2023-09-27T05:19:41.177000Z,True,14.0,1695791037,True,1,1,36,221043930.0,20015,['creditcard'],velib,
5,24,8684a922b92f476994b3017da087b7de,48.9155156,2.3814103,Anatole France - President Roosevelt,2023-09-27T05:19:40.849000Z,True,14.0,1695790819,True,1,1,29,583539396.0,33017,['creditcard'],velib,
14,2,626aae3b367a4cfa9dde9e771cd171e2,48.83372430280548,2.2713854536414146,Henry Farman,2023-09-27T05:19:38.606000Z,False,0.0,1695790975,False,1,1,16,101753100.0,15042,,velib,
11,8,d1d05b02773239aaf28322d7b646f520,48.87403113727167,2.38959476351738,Jourdain - Place des Grandes Rigoles,2023-09-27T05:19:40.184000Z,True,8.0,1695791060,True,1,1,22,27415466.0,20112,['creditcard'],velib,
60,3,a39734a757cc3e8405c726a31447ff3f,48.87590240712654,2.322616316378116,Rocher - Laborde,2023-09-27T05:19:39.323000Z,True,3.0,1695791052,True,1,1,65,88140066.0,8017,['creditcard'],velib,
20,5,d1da3c0f31aac127904cd3b60055381a,48.84780306364685,2.445141971111298,Fontenay - Libération,2023-09-27T05:19:40.257000Z,False,2.0,1695790682,False,1,1,25,66491385.0,43008,,velib,
45,3,a3e47b0db0706d8980ad5ce16e4697b2,48.89738369720229,2.3959985375404362,Grands Moulins de Pantin,2023-09-27T05:19:39.530000Z,False,2.0,1695790551,False,1,1,50,52393.0,19044,,velib,
7,16,bf825ec63b2762a3c2e10f61cbefe5c5,48.871244610447015,2.4039056897163396,Gambetta - Saint Fargeau,2023-09-27T05:19:40.458000Z,False,16.0,1695790930,False,1,1,24,42517412.0,20037,,velib,
3,12,d9ab4e54af77924b8e6e4e0f8054af58,48.84706173362218,2.4787822365760808,Cimetière de Fontenay-sous-Bois,2023-09-27T05:19:39.014000Z,False,10.0,1695791004,False,1,1,15,596813170.0,41209,,velib,
3,14,315c13f5430fa293bc523362d2c9c64e,48.88633710236977,2.407338917255402,Gabriel Péri - Francisco Ferrer,2023-09-27T05:19:40.545000Z,False,4.0,1695790965,False,1,1,18,209057581.0,33102,,velib,
53,1,660c4f1931862fb44696bdb9a0526799,48.864920982538,2.3025491823859,Place de la Reine Astrid,2023-09-27T05:19:40.260000Z,True,1.0,1695790606,True,1,1,54,66491389.0,8045,['creditcard'],velib,
14,15,afd259141843f240d250d217854b95e7,48.818144834008976,2.271184623241425,Lucie Aubrac - Fort,2023-09-27T05:19:39.525000Z,True,15.0,1695791025,True,1,1,30,596872103.0,21312,['creditcard'],velib,
10,25,245619a344ea59289f61f27a9a69a146,48.8927825,2.3635598,Pajol - Place Herbert,2023-09-27T05:19:40.309000Z,True,2.0,1695790881,True,1,1,39,81081358.0,18011,['creditcard'],velib,
22,2,7eddfddc58844d6d4c34b06ac41d8b5d,48.852828153442,2.2978776320815,Fédération - Suffren,2023-09-27T05:19:39.860000Z,True,1.0,1695791031,True,1,1,25,213684314.0,15105,['creditcard'],velib,
57,7,a87ab4a2181ddd14a7ef18b8c51dd088,48.83769531916335,2.275374233722687,Hôpital Européen Georges Pompidou ,2023-09-27T05:19:39.469000Z,False,3.0,1695791009,False,1,1,64,535500589.0,15104,,velib,
15,19,f95e25028557f007a30c969f14d83619,48.7985844,2.3821302,Concorde - Stalingrad,2023-09-27T05:19:41.215000Z,True,8.0,1695791049,True,1,1,35,597245295.0,44006,['creditcard'],velib,
8,18,b1f0b90f2fa3212b58f1d0021ac41a84,48.877436681515796,2.3860743641853337,Carducci - Place Hannah Arendt,2023-09-27T05:19:39.259000Z,False,17.0,1695791057,False,1,1,27,235513935.0,19120,,velib,
16,2,369df960ee33506c3a598f5fe8f778d9,48.8417514,2.3413893,Saint-Jacques - Val de Grâce,2023-09-27T05:19:38.702000Z,False,1.0,1695790931,False,1,1,19,27206194.0,5004,,velib,
5,15,81c6917af57589f4738c3a3b55008ab8,48.88467214209463,2.3919698596000676,Manin - Carrières d'Amérique,2023-09-27T05:19:40.213000Z,False,7.0,1695790884,False,1,1,20,102323152.0,19103,,velib,
23,5,dd52e0cb096996ac0233416fa8f662ce,48.843949064031825,2.415081394834419,Victor Hugo - Jeanne Jugan,2023-09-27T05:19:39.778000Z,False,0.0,1695790973,False,1,1,28,129060764.0,12114,,velib,
30,0,e61199a82c0da4eec47ec06c33d86bdb,48.828012849445,2.3056878894567,Porte de Vanves,2023-09-27T05:19:40.352000Z,False,0.0,1695790943,False,1,1,32,828134511.0,14138,,velib,
7,7,58523eb76e479390d1253e58c81d2818,48.866830968942,2.3654810339212,Place de la République - Voltaire,2023-09-27T05:19:39.334000Z,True,3.0,1695790993,True,1,1,19,129050965.0,11046,['creditcard'],velib,
12,13,6a2c14f71aefa51eaad2cda6c1e6d220,48.77093586667601,2.4034014344215398,Conservatoire de Musique,2023-09-27T05:19:39.746000Z,False,2.0,1695790717,False,1,1,25,586649404.0,46003,,velib,
10,3,181c9a16dafc3dcae89058267fb52eae,48.874575,2.356796,Gare de l'Est - Fidélité,2023-09-27T05:19:38.827000Z,False,2.0,1695790931,False,1,1,15,210584503.0,10017,,velib,
18,12,82afb3ca468026dfa2d45e3232c688f3,48.89401874744574,2.3319872841238976,Championnet - Vauvenargues,2023-09-27T05:19:40.472000Z,True,6.0,1695790852,True,1,1,33,76199461.0,18028,['creditcard'],velib,
10,8,c6d7a786768ad66d80d8234468700590,48.87174684930295,2.3722528328789854,Buisson Saint-Louis - Saint-Maur,2023-09-27T05:19:38.804000Z,False,2.0,1695791027,False,1,1,19,271426439.0,10024,,velib,
0,0,16412aab9acb0fed26c215d96d088629,48.89579697978,2.3455855841349,Place Albert Kahn,2023-09-27T05:19:39.226000Z,True,0.0,1688374764,True,0,0,0,27363187.0,18031,['creditcard'],velib,
11,8,b0a83706c92bf562b073f4e5c1452b89,48.879595787608,2.3544725775719,Gare du Nord - Denain,2023-09-27T05:19:40.848000Z,True,4.0,1695790974,True,1,1,20,594942659.0,10153,['creditcard'],velib,
4,14,0286062e968424bf7ed0e2730471a58e,48.83796366147599,2.2877392172813416,Lecourbe - Jean Maridor,2023-09-27T05:19:39.514000Z,False,3.0,1695790936,False,1,1,19,213683101.0,15054,,velib,
21,11,d83374f7eaf870abfc72cf207f2a3b8d,48.84993035512154,2.294612042605877,Grenelle - Violet,2023-09-27T05:19:39.941000Z,True,5.0,1695790868,True,1,1,35,213684750.0,15106,['creditcard'],velib,
31,2,dac92a394d655d0e3436fe8c7d424535,48.859358523593,2.3896131366845,Repos - Cimetière du Père Lachaise,2023-09-27T05:19:41.104000Z,True,1.0,1695790962,True,1,1,33,54000625.0,20131,['creditcard'],velib,
31,5,00718dcc2fa34b019d9cba625c94b1e7,48.831632518292565,2.3293121159076686,Mouton Duvernet - Général Leclerc,2023-09-27T05:19:39.512000Z,True,3.0,1695790943,True,1,1,39,129067920.0,14008,['creditcard'],velib,
28,3,80d99e3a323117129b2639ce06f3fbce,48.872420063053,2.3483952362828,Enghien - Faubourg Poissonnière,2023-09-27T05:19:40.772000Z,False,1.0,1695790680,False,1,1,33,129038848.0,10042,,velib,
9,14,e2111d9f681c2fda195565830e3d3e50,48.836191728066666,2.2811267160086417,Place Robert Guillemard,2023-09-27T05:19:40.388000Z,False,1.0,1695791068,False,1,1,24,213685514.0,15110,,velib,
48,0,6804f69932aa639140cd339c2d3033a8,48.852233164303,2.3266580700874,Raspail - Chomel,2023-09-27T05:19:40.642000Z,True,0.0,1695790717,True,1,1,49,544249939.0,7101,['creditcard'],velib,
19,2,8a621999524f1f819e5fdde38cf379d7,48.825218683556734,2.3107116669416428,Marc Sangnier - Porte de Vanves,2023-09-27T05:19:39.653000Z,False,2.0,1695790716,False,1,1,21,27364743.0,14106,,velib,
28,1,2c1b9fe1588f2a55133e8ecced090087,48.88794016394694,2.326124420314341,Etienne Jodelle - Saint Ouen,2023-09-27T05:19:40.121000Z,False,1.0,1695790868,False,1,1,33,102314792.0,18046,,velib,
14,13,d57ebdccece8728e9eadba78c16c3602,48.8415473058801,2.233161628246308,Marcelin Berthelot,2023-09-27T05:19:39.665000Z,False,8.0,1695790895,False,1,1,27,102329800.0,21006,,velib,
12,11,cd99f6fccb3b8308d3a209ed2d50f6b7,48.81527009991819,2.298078276995073,Guy Môquet - Etienne Dolet,2023-09-27T05:19:38.757000Z,False,9.0,1695790897,False,1,1,23,35447568.0,22406,,velib,
19,11,b5ab69f1149431d5e2d88e6e48c13bfd,48.90713441498779,2.396005728053061,Jean Jaurès - Presles,2023-09-27T05:19:38.577000Z,True,8.0,1695790774,True,1,1,30,27415736.0,35002,['creditcard'],velib,
8,12,a728c3796d1b4797469bde32fed91fb2,48.876111,2.4677312,Boissière - Etienne Dolet,2023-09-27T05:19:40.730000Z,False,12.0,1695790912,False,1,1,21,583178525.0,31102,,velib,
24,6,d2b68e9aee4f8d99eb34c854f3b85736,48.781383825117,2.3723508417606,Edouard Tremblay - Julian Grimaux,2023-09-27T05:19:39.560000Z,False,4.0,1695790732,False,1,1,30,572566600.0,44013,,velib,
29,2,fb6143e08f09ec21268014e1fead6fbc,48.87614039826388,2.301303138307601,Bertie Albrecht - Hoche,2023-09-27T05:19:38.785000Z,True,1.0,1695791047,True,1,1,32,82387816.0,8054,['creditcard'],velib,
1,21,4108b785296de89b10b751f5bdfbd586,48.826701758539215,2.3384983465075493,Sibelle - Alésia,2023-09-27T05:19:41.220000Z,False,10.0,1695790953,False,1,1,25,213679512.0,14012,,velib,
23,3,a64573b5190cc358a71dc8214c79271e,48.83495885166784,2.2416803240776066,Hôtel de Ville de Boulogne Billancourt,2023-09-27T05:19:38.595000Z,True,1.0,1695790890,True,1,1,26,85147829.0,21005,['creditcard'],velib,
6,19,3ba5474502d0aa75bdd2bfcbd01e01cf,48.84240765130395,2.281037718057633,Cevennes - Bergers,2023-09-27T05:19:40.337000Z,True,0.0,1695791073,True,1,1,29,213685090.0,15109,['creditcard'],velib,
9,19,872fdfe8bc3d8669b1629ee2d40e0a1d,48.81111581390707,2.3145738624448158,Molière - République,2023-09-27T05:19:40.814000Z,False,10.0,1695790773,False,1,1,30,301841024.0,21209,,velib,
7,12,fe296c930942ae6a13e8ad2e6ea013de,48.82941,2.375934,Chevaleret - Tolbiac,2023-09-27T05:19:39.885000Z,True,4.0,1695790983,True,1,1,21,213676294.0,13053,['creditcard'],velib,
10,14,d2b097f9d404bc73221242a9845ec9c7,48.89110239200789,2.402843534946442,Hoche - Jean Lolive,2023-09-27T05:19:39.897000Z,True,9.0,1695790920,True,1,1,24,588452142.0,35010,['creditcard'],velib,
15,6,f58053884704d8d07239df165354fc96,48.821092374256104,2.333725690841675,David Weill - Parc Montsouris,2023-09-27T05:19:38.978000Z,True,5.0,1695790514,True,1,1,22,213681356.0,14124,['creditcard'],velib,
10,28,ed0463d727df1ad32249367a3f5636ec,48.892371898250424,2.205548956990242,Hôtel de Ville de Nanterre,2023-09-27T05:19:38.709000Z,True,8.0,1695791060,True,1,1,38,653200142.0,92008,['creditcard'],velib,
10,26,f98b98a999c735ea43a15b32c22e1eda,48.890451120965,2.3490573929687,Marcadet - Barbès,2023-09-27T05:19:40.300000Z,True,5.0,1695791053,True,1,1,37,66491402.0,18022,['creditcard'],velib,
28,5,0b23d6bf33059c82ee505fb68802f811,48.84856323305935,2.3204218259345537,Vaneau - Sèvres,2023-09-27T05:19:40.788000Z,False,4.0,1695791053,False,1,1,35,210565680.0,7002,,velib,
32,8,8561b8c39252e8a4287181c7410b932f,48.821475594736775,2.3026576638221745,Jean Jaurès - Salvador Allende,2023-09-27T05:19:40.353000Z,False,1.0,1695791040,False,1,1,43,27415665.0,22402,,velib,
49,7,83a12407a969085098c09984ae7b3392,48.857421708072074,2.437578141689301,François Debergue - Croix de Chavaux,2023-09-27T05:19:39.309000Z,True,6.0,1695790567,True,1,1,57,213911772.0,31008,['creditcard'],velib,
7,16,2c30ff78fb8e28fb3d8b5d188ccaff1c,48.82753962462998,2.2416052222251897,Nationale - Place Jules Guesde,2023-09-27T05:19:39.333000Z,False,2.0,1695790876,False,1,1,23,129132870.0,21015,,velib,
0,19,5086d6e204e73a68cf7412c7adc80f88,48.790114,2.4025777,Gabriel Péri - Danielle Casanova,2023-09-27T05:19:40.890000Z,True,5.0,1695791026,True,1,1,20,620403530.0,44003,['creditcard'],velib,
43,5,930b746bb09f1ed84bf66a47f262c746,48.8798926,2.2587671,Route de la Muette - Porte de Neuilly,2023-09-27T05:19:40.023000Z,True,3.0,1695790999,True,1,1,50,624177860.0,16122,['creditcard'],velib,
6,16,d0453cba0050a3750348d90b8d27f21b,48.79592939432515,2.4261841177940373,Carnot - Pâquerettes,2023-09-27T05:19:40.851000Z,False,4.0,1695791069,False,1,1,26,631773910.0,41404,,velib,
16,12,b12cdb41cb813c52ad3050b93f4b61f8,48.787553654715644,2.306235730648041,Tertres - Fontaine,2023-09-27T05:19:40.143000Z,False,10.0,1695790806,False,1,1,28,611152693.0,22203,,velib,
39,21,82be1e73fc5805fc36fdcbce8962a99b,48.8436279,2.4630465,Gare Rer de Fontenay sous Bois,2023-09-27T05:19:40.580000Z,True,3.0,1695791053,True,1,1,61,235241110.0,41202,['creditcard'],velib,
2,29,d3a2ff3c88a9849b2ee10579018a1364,48.8094458,2.3903009,Raspail - Manufacture des Oeillets,2023-09-27T05:19:38.984000Z,True,9.0,1695791058,True,1,1,32,613737748.0,42021,['creditcard'],velib,
32,4,85f20fa1ddcb0cb074a830d099dea308,48.86223916006812,2.4435862898826604,Lucie Aubrac - Franklin,2023-09-27T05:19:39.369000Z,True,2.0,1695790977,True,1,1,36,632007124.0,31016,['creditcard'],velib,
2,24,df01dc24a762fa5b2ad6135745f3eb55,48.791922819921815,2.395057752728462,Place de l'Eglise - Vitry-sur-Seine,2023-09-27T05:19:38.628000Z,False,4.0,1695791020,False,1,1,28,632086890.0,44004,,velib,
5,16,d01c235cdb4b9097d28e455e2c74be01,48.87451538963655,2.415283620357514,Noisy le Sec - Jean-Baptiste Clément,2023-09-27T05:19:38.854000Z,False,15.0,1695790987,False,1,1,22,213945171.0,31708,,velib,
7,10,0b38b096fe3eef717615fb15e516c45f,48.8835462,2.4137883,Marcelle - Thalie,2023-09-27T05:19:39.207000Z,True,10.0,1695790877,True,1,1,20,463297497.0,35020,['creditcard'],velib,
16,8,fdb8945bd7922a97cc52ea4afac6c9a2,48.892663,2.172411,Henri Ste-Claire Déville - Paul Héroult,2023-09-27T05:19:41.010000Z,False,6.0,1695790932,False,1,1,24,213875650.0,25003,,velib,
18,2,3a05079f559fff0b86fa2bf0921a2f11,48.86431136000005,2.4105210229754443,Louis Lumière - Porte de Bagnolet,2023-09-27T05:19:38.677000Z,False,2.0,1695790601,False,1,1,20,245187072.0,20115,,velib,
18,7,cb86865b0a02da8981d54f3c56f7e274,48.854898095789295,2.4186685681343083,Paris - Emile Zola,2023-09-27T05:19:40.626000Z,True,3.0,1695791073,True,1,1,30,129144878.0,31003,['creditcard'],velib,
25,8,12814e3da93b1e24881fef140301edbc,48.83802015441127,2.2460845112800603,Victor Hugo - Galliéni,2023-09-27T05:19:38.600000Z,True,6.0,1695790681,True,1,1,34,102331767.0,21008,['creditcard'],velib,
20,3,fbaf6d3fa0223f131397ed46900ea8b1,48.875065791004396,2.3316738009452824,Victoire - Chaussée d'Antin,2023-09-27T05:19:40.640000Z,True,0.0,1695790958,True,1,1,24,593238093.0,9116,['creditcard'],velib,
5,25,f0abcdc6123b221199987eba21c12c12,48.906442763495,2.3584905266762,Proudhon - Président Wilson,2023-09-27T05:19:39.353000Z,False,14.0,1695786176,False,1,1,30,213952930.0,32001,,velib,
28,10,2f6d0167a95821501cfb9211437e490e,48.84070239213081,2.409667745232582,Square Georges Melies,2023-09-27T05:19:39.358000Z,False,2.0,1695791031,False,1,1,40,606669250.0,12154,,velib,
31,1,8f275a7310d4ed997c235252009ade6f,48.86741186571367,2.290781380114821,Galilée - Kléber,2023-09-27T05:19:39.755000Z,True,1.0,1695774012,True,1,1,32,15462236.0,16008,['creditcard'],velib,
24,11,5647d067f510533f3e7b855d4c133ec5,48.86580427668637,2.369337074966926,Richard Lenoir - Jean-Pierre Timbaud,2023-09-27T05:19:40.170000Z,True,1.0,1695790891,True,1,1,36,37791.0,11039,['creditcard'],velib,
16,6,78b0c1c2a9b18f24ef024257370b66be,48.885325169402904,2.316423766314984,Legendre - Dulong,2023-09-27T05:19:39.955000Z,True,2.0,1695790786,True,1,1,23,50156117.0,17013,['creditcard'],velib,
23,5,599ba9ea3625cc347e892274d793ba38,48.85865170952645,2.303716580234576,Bosquet - Saint-Dominique,2023-09-27T05:19:40.580000Z,True,1.0,1695791016,True,1,1,28,128890772.0,7021,['creditcard'],velib,
12,31,fc93c6ee4f2c083448ae5eba3e4d47c3,48.86112461407359,2.381299026310444,Chemin Vert - Saint-Maur,2023-09-27T05:19:40.219000Z,True,2.0,1695791066,True,1,1,45,210744286.0,11026,['creditcard'],velib,
52,3,9b500b459bb4c0aba959a354251c0cf3,48.82837482809675,2.384273745805574,Quai Panhard et Levassor,2023-09-27T05:19:38.665000Z,True,1.0,1695790831,True,1,1,57,101024234.0,13050,['creditcard'],velib,
30,18,3f9290134bb9cc2bfabaa5ee66f4c1ae,48.881287375060616,2.420119643211365,Square du Théâtre du Garde-Chasse,2023-09-27T05:19:38.797000Z,False,17.0,1695790682,False,1,1,50,213992316.0,32604,,velib,
16,3,2776291e78769421a5615e5dac2adcc2,48.877951,2.381464,Botzaris - Parc des Buttes Chaumont,2023-09-27T05:19:40.616000Z,False,3.0,1695790847,False,1,1,20,213694482.0,19024,,velib,
28,5,9efb83e6e67306562f7132a15741192e,48.87525454905335,2.340853661298752,Faubourg Montmartre - La Fayette,2023-09-27T05:19:39.384000Z,True,4.0,1695791045,True,1,1,35,39799329.0,9014,['creditcard'],velib,
32,32,c8ca1d140dac90e5571c377761f51505,48.844835471244416,2.297508493065834,Joseph Liouville - Croix Nivert,2023-09-27T05:19:41.192000Z,True,0.0,1695790879,True,1,1,64,101743895.0,15021,['creditcard'],velib,
38,3,cf06f90e57e47828b6a78c15756d6efd,48.883498,2.282015,Place Madeleine Daniélou,2023-09-27T05:19:40.016000Z,False,2.0,1695790687,False,1,1,42,213691848.0,17105,,velib,
16,0,8601c34d7f1a457da026bb956c81e7c5,48.84512772828039,2.3454568170361734,Estrapade - Ulm,2023-09-27T05:19:39.003000Z,False,0.0,1695790654,False,1,1,16,210396518.0,5012,,velib,
13,33,d19e975e803c256106251152a112ba7a,48.8644954,2.3750124,Parmentier - République,2023-09-27T05:19:39.777000Z,True,3.0,1695791054,True,1,1,50,97677210.0,11105,['creditcard'],velib,
18,2,ccddc3f74a52fc55e5dd7db77b86033a,48.86746195408435,2.405970990657807,Lieutenant Chauré - Etienne Marey,2023-09-27T05:19:38.911000Z,True,2.0,1695790629,True,1,1,20,875078767.0,20134,['creditcard'],velib,
17,1,90e25ed0c04c5a9c6f6a2538703f48e4,48.848191348584,2.341831654854,Cujas - Saint-Michel,2023-09-27T05:19:39.556000Z,True,1.0,1695791055,True,1,1,19,35908.0,5106,['creditcard'],velib,
10,16,e4a127d37dccdee756337c7e69893c1d,48.89465,2.381868,Flandre - Alphonse Karr,2023-09-27T05:19:40.500000Z,True,6.0,1695791009,True,1,1,26,213694069.0,19008,['creditcard'],velib,
4,25,62f3254534266bbed321e50393217e5b,48.816939911292,2.2809894804846,Larmeroux - Baudelaire,2023-09-27T05:19:39.801000Z,False,14.0,1695791035,False,1,1,29,102338493.0,21701,,velib,
5,13,51ebad3d693a45da3f101384aa4cb879,48.88611466796807,2.356855627529275,Jean-François Lépine - Stephenson,2023-09-27T05:19:41.063000Z,True,2.0,1695790997,True,1,1,22,54000601.0,18009,['creditcard'],velib,
12,0,212a1e559d18d8b3f08ba8f5360fcdfd,48.875448033960744,2.315508019010038,Messine - Place Du Pérou,2023-09-27T05:19:39.825000Z,True,0.0,1695790512,True,1,1,12,120827885.0,8026,['creditcard'],velib,
15,10,17febe78152206d85bbe08b065dbb864,48.886591074487995,2.261394560337067,Beffroy,2023-09-27T05:19:39.129000Z,True,6.0,1695791048,True,1,1,26,27362896.0,22003,['creditcard'],velib,
19,13,83dcce208468d87219973e82469ad2ab,48.84520880183234,2.2656840831041336,Molitor - Chardon-Lagache,2023-09-27T05:19:40.900000Z,True,3.0,1695790919,True,1,1,34,213687140.0,16038,['creditcard'],velib,
3,23,8d718350b29821ee46bbfe1636f9c6be,48.839109,2.4175664,Général De Gaulle - Alouette,2023-09-27T05:19:40.393000Z,True,7.0,1695790920,True,1,1,26,235599121.0,41601,['creditcard'],velib,
16,9,14aa5a19d30ce4c1724a4a427bb7c144,48.827673823165846,2.320918142795563,Abbé Carton - Plantes,2023-09-27T05:19:39.977000Z,False,3.0,1695790891,False,1,1,25,213680917.0,14110,,velib,
20,12,3ef1bff58e21edbad3d9f7bee43c7f8c,48.88863669349711,2.3111706599593163,Marie-Georges Picquart - Pereire,2023-09-27T05:19:41.117000Z,False,3.0,1695790973,False,1,1,32,1057774603.0,17125,,velib,
33,3,56717eb48edd3481e0faa47237f12cdc,48.863875,2.28189,Sablons - Georges Mandel,2023-09-27T05:19:38.588000Z,False,2.0,1695791052,False,1,1,38,213688462.0,16108,,velib,
28,20,e16a89b03100c1a9a31fc0c2de714216,48.847563015126106,2.433383166790009,Gare RER de Vincennes,2023-09-27T05:19:40.428000Z,False,9.0,1695790978,False,1,1,51,102749572.0,43005,,velib,
36,10,6b23eb8e0e5648bd5dab1e5c23c0819d,48.8726877314,2.376461327076,Villette - Belleville,2023-09-27T05:19:39.903000Z,True,7.0,1695791044,True,1,1,48,549876068.0,19032,['creditcard'],velib,
14,13,0ac3cbc87d82ca74faac5280a283acb5,48.85034821320644,2.273029983043671,Théophile Gautier - François Millet,2023-09-27T05:19:39.537000Z,False,1.0,1695790952,False,1,1,30,390212609.0,16136,,velib,
49,0,06208bdf6da0dab3361163105b85c87f,48.858462881661,2.4147954583168,Edouard Vaillant - Galliéni,2023-09-27T05:19:39.424000Z,False,0.0,1597371137,False,0,0,49,213936755.0,31707,,velib,
18,5,a38f27b218f46ee5a46557e0beb7d19d,48.88125496379482,2.373463287949562,Marché Secrétan,2023-09-27T05:19:39.221000Z,True,4.0,1695791070,True,1,1,26,63498079.0,19022,['creditcard'],velib,
16,10,d187ec6f16648953827d9725582dda53,48.895713,2.400571,Quai de l'Aisne - Général Leclerc,2023-09-27T05:19:39.635000Z,True,10.0,1695791050,True,1,1,27,214019379.0,35005,['creditcard'],velib,
1,46,723ed2a530c8ac46bbeb6d87ede77194,48.858925,2.3789759,Mairie du 11ème,2023-09-27T05:19:40.872000Z,True,2.0,1695790976,True,1,1,51,39254792.0,11024,['creditcard'],velib,
30,7,23acd467af3c8f63afae56ec0627b2f1,48.82577028927573,2.3210415244102482,Auguste Cain - Jean Moulin,2023-09-27T05:19:39.507000Z,False,1.0,1695790940,False,1,1,40,648227675.0,14136,,velib,
2,28,2d86c0b00554a00eb8b9b1e7a2c3aab2,48.8435137879902,2.3065522313117985,Volontaire - Lecourbe,2023-09-27T05:19:40.021000Z,True,2.0,1695791062,True,1,1,31,82457375.0,15013,['creditcard'],velib,
24,28,e2cface03d9bff4209367541d7ca6cde,48.84442462786544,2.294059172272682,Lakanal - Commerce,2023-09-27T05:19:40.242000Z,True,8.0,1695790673,True,1,1,53,66491378.0,15034,['creditcard'],velib,
31,2,014cb48626b158d02eb81447060df5fd,48.87372241291653,2.315848097205162,Miromesnil - La Boétie,2023-09-27T05:19:38.723000Z,True,1.0,1695790589,True,1,1,35,42566291.0,8025,['creditcard'],velib,
28,23,71aded7e7b3842115325ee49a15e6522,48.871624306962985,2.3639265082738348,Marseille - Beaurepaire,2023-09-27T05:19:38.743000Z,False,1.0,1695791062,False,1,1,55,129032910.0,10014,,velib,
30,5,2290cddc4d410f3ba5a827fa743b1657,48.872988840744,2.3294984212276,Mathurins - Auber,2023-09-27T05:19:40.860000Z,True,4.0,1695790806,True,1,1,36,237624030.0,9032,['creditcard'],velib,
29,0,ccd737a08df2677cef1e31a5c33a0385,48.850571,2.3471015,Saint-Germain - Thenard,2023-09-27T05:19:39.594000Z,True,0.0,1695790810,True,1,1,31,647826568.0,5123,['creditcard'],velib,
32,1,eec90e5124bbe51a7eb1635f11ecae64,48.882633484311,2.3448844062122,Square d'Anvers,2023-09-27T05:19:39.899000Z,True,1.0,1695791051,True,1,1,33,27414841.0,9005,['creditcard'],velib,
15,12,24250132e73a287f6c865014b88d4348,48.83486054775774,2.3445770524322067,Arago - Glacière,2023-09-27T05:19:41.006000Z,True,1.0,1695791021,True,1,1,27,54000577.0,13002,['creditcard'],velib,
0,48,773aa12714642d2db324733a49a8d0aa,48.81057120969284,2.3842826485633855,Mairie d'Ivry-sur-Seine,2023-09-27T05:19:39.124000Z,False,17.0,1695790947,False,1,1,53,94250567.0,42010,,velib,
7,20,f54dbdf275d1232aec98e25ef36d9b2a,48.83227829269761,2.3022570088505745,Parc Georges Brassens - Brancion,2023-09-27T05:19:40.197000Z,True,9.0,1695791044,True,1,1,29,129078200.0,15046,['creditcard'],velib,
41,9,45ed78d1a81f3acb2b888eccfbfff620,48.86921273836114,2.371688821240712,Parmentier - Abel Rabaud,2023-09-27T05:19:41.216000Z,True,0.0,1695790958,True,1,1,52,54001024.0,11035,['creditcard'],velib,
4,15,f67aa105e8682241b178d9970ec89cdc,48.7672039733195,2.4144977331161503,Place Paul Eluard,2023-09-27T05:19:38.620000Z,True,5.0,1695790540,True,1,1,19,649888071.0,46001,['creditcard'],velib,
20,12,be5508c978ac002c6468e55accb555fd,48.84309486651855,2.2597770800669053,Exelmans - Michel-Ange,2023-09-27T05:19:39.969000Z,True,2.0,1695790888,True,1,1,33,82563707.0,16040,['creditcard'],velib,
27,0,17518106bd3e7431c47281ab64709822,48.882976576876565,2.260125767248034,Pierret - Madrid,2023-09-27T05:19:40.141000Z,True,0.0,1695790767,True,1,1,28,129143598.0,22006,['creditcard'],velib,
32,4,de88c5afccefc010c6c460a1a03d49aa,48.8888,2.296319,Reims - Raymond Pitet,2023-09-27T05:19:39.371000Z,False,2.0,1695790922,False,1,1,37,213690847.0,17028,,velib,
4,30,18bce01e11505e5771130cfc93b83030,48.819211549234495,2.254007756710053,Saint-Vincent - Verdun,2023-09-27T05:19:40.896000Z,False,10.0,1695791055,False,1,1,34,102333275.0,21301,,velib,
44,3,fc0c19cb01acd6b45387220e9e0f6a1f,48.864660627935,2.3692265531829,Grand Prieuré - Crussol,2023-09-27T05:19:40.863000Z,False,2.0,1695791013,False,1,1,49,210746090.0,11042,,velib,
47,8,8b24ed46593b2410a918887466ef965e,48.910388180512,2.3117771744728,Claude Debussy - Marc Bloch,2023-09-27T05:19:39.238000Z,False,1.0,1695791017,False,1,1,56,54000628.0,21112,,velib,
7,15,937192a3f66b1fd89bb190880a5837ea,48.79387269664978,2.321148812770844,Aristide Briand - Gare de Bagneux,2023-09-27T05:19:40.840000Z,True,11.0,1695791028,True,1,1,22,640629438.0,42302,['creditcard'],velib,
18,17,1563c1021ce4727eb5640d5032921e79,48.905303858642,2.31055945158,Parc Roger Salengro,2023-09-27T05:19:40.217000Z,False,10.0,1695791074,False,1,1,35,27415512.0,21110,,velib,
16,2,47464bd539d5c5be08a34fc21c68dafc,48.886785741479684,2.3746193200349808,Seine - Flandre,2023-09-27T05:19:39.252000Z,True,0.0,1695791070,True,1,1,19,27363362.0,19029,['creditcard'],velib,
20,11,5d72fe66321350e4ac6aaca586fae6c5,48.886393679436,2.3865414544355,Hautpoul - Jean Jaurès,2023-09-27T05:19:40.720000Z,True,1.0,1695790948,True,1,1,32,6399.0,19016,['creditcard'],velib,
6,12,92a76a55ecccb996217e600e7fcc71a4,48.877141208359035,2.4461565166711807,Chemin Vert - Fraternité,2023-09-27T05:19:41.079000Z,False,12.0,1695790566,False,1,1,20,1062206433.0,32302,,velib,
0,31,37bcd0ffd81d5c43f790ccef84cce304,48.88467368538326,2.380039058625698,Laumière - Petit,2023-09-27T05:19:39.218000Z,True,9.0,1695790846,True,1,1,34,54000609.0,19013,['creditcard'],velib,
12,16,8ad2062f7428ffb3221bc38035341327,48.909423010092326,2.3584435880184174,Wilson - Métallurgie,2023-09-27T05:19:41.194000Z,False,7.0,1695791074,False,1,1,28,213957917.0,32003,,velib,
4,16,dbc675399fae397f99c2ab250dcd9140,48.90379820774301,2.3187401890754704,Madame de Sanzillon - Mozart,2023-09-27T05:19:41.104000Z,True,10.0,1695790926,True,1,1,22,54000626.0,21104,['creditcard'],velib,
25,2,ba220c2f91c92b4ed1a31315fbf59d1d,48.8577967,2.3192664,Mairie du 7ème,2023-09-27T05:19:38.615000Z,False,1.0,1695791074,False,1,1,27,82253759.0,7102,,velib,
30,2,45a6afb62b37136822c20fc749912056,48.852191909696,2.3740932717919,Charonne - Faubourg Saint-Antoine,2023-09-27T05:19:41.334000Z,True,0.0,1695790714,True,1,1,34,55664548.0,11004,['creditcard'],velib,
17,13,2ef58c63ca426a656a16e9fb47a70ea1,48.84288183896324,2.222245037555695,Gare Routière de Saint Cloud,2023-09-27T05:19:41.324000Z,True,4.0,1695790766,True,1,1,31,213868408.0,22101,['creditcard'],velib,
1,24,6f88ea4da712ac28d99e44f06154901a,48.799824,2.328171,Gare Arcueil - Cachan,2023-09-27T05:19:39.783000Z,True,19.0,1695787581,True,1,1,26,214134714.0,42301,['creditcard'],velib,
48,4,08cd405dc9467f0d86e2b6717e1382d3,48.855628721101,2.3256602883339,Raspail - Bac,2023-09-27T05:19:38.574000Z,True,0.0,1695791012,True,1,1,52,100859941.0,7005,['creditcard'],velib,
10,19,e186587b3123013458d1822d8232789d,48.814280450380224,2.3410347104072575,Gare RER de Gentilly,2023-09-27T05:19:38.667000Z,False,13.0,1695791023,False,1,1,30,214139374.0,42504,,velib,
0,0,0b9d4b132376128ea02f1356f3c379ab,48.868895162679,2.3919824145635,Boyer - Ménilmontant,2023-09-27T05:19:40.601000Z,False,0.0,1526882385,False,0,0,19,213702608.0,20121,,velib,
2,27,478589d5f96e785e1c7a5ebcff4774aa,48.82124248401006,2.2511002421379094,Aristide Briand - Place de la Résistance,2023-09-27T05:19:38.714000Z,True,10.0,1695790971,True,1,1,25,102335085.0,21302,['creditcard'],velib,
10,14,e0885c8fbacda3f822e6f110796f47eb,48.8184945213025,2.3744174838066106,Place Jean Ferrat,2023-09-27T05:19:39.297000Z,False,6.0,1695791060,False,1,1,25,559507144.0,42015,,velib,
14,5,27f24e910c5e5808753e43fb433da652,48.867362,2.396222,Villiers de l'Isle Adam - Pyrénées,2023-09-27T05:19:39.730000Z,False,5.0,1695790904,False,1,1,20,213700358.0,20111,,velib,
20,1,88ea02c860f8968afc61c3bdf7fa50c2,48.87778639599673,2.337429821491241,Saint Georges - d'Aumale,2023-09-27T05:19:41.167000Z,True,0.0,1695790906,True,1,1,23,468843711.0,9021,['creditcard'],velib,
14,26,30df735431c23fca3387117b33edce2b,48.85670169739857,2.445072233676911,Stalingrad - Désiré Chevalier,2023-09-27T05:19:40.154000Z,False,16.0,1695790847,False,1,1,42,129151834.0,31010,,velib,
44,5,522c47b8d0ec09ad47516c94b4b3af99,48.82176874759649,2.3688706755638127,Porte d'Ivry,2023-09-27T05:19:39.951000Z,False,4.0,1695790994,False,1,1,50,82432573.0,13041,,velib,
4,20,9b573ec174a6c3c24292ce8c7b522c4f,48.80476007936134,2.4180373930262093,Victor Hugo - Ecoles,2023-09-27T05:19:41.204000Z,True,4.0,1695790799,True,1,1,25,650091839.0,41402,['creditcard'],velib,
25,0,809068ab0c9f09c33ee62418690d73ed,48.84571672113014,2.4272462725639348,Hôpital Bégin,2023-09-27T05:19:40.005000Z,True,0.0,1695790778,True,1,1,26,362869414.0,43003,['creditcard'],velib,
23,26,ed5f3cc959f86035215f4da93d21b93e,48.868831082877,2.3809862136841,Belleville - Couronnes,2023-09-27T05:19:41.235000Z,True,2.0,1695791049,True,1,1,50,129121741.0,20039,['creditcard'],velib,
13,5,45e42f493a7432db593b8d397c00b8ab,48.846171461187,2.3793068155646,Charenton - Diderot,2023-09-27T05:19:39.526000Z,True,2.0,1695790509,True,1,1,18,49859500.0,12009,['creditcard'],velib,
7,27,e913cb0d86c2ad44b1c227214b67335f,48.888537048944826,2.3561610281467438,Stephenson - Doudeauville,2023-09-27T05:19:40.390000Z,True,18.0,1695791038,True,1,1,36,42743053.0,18012,['creditcard'],velib,
30,25,3894522337ae96decb2834df121c0b82,48.868397,2.3678933,Jules Ferry - Faubourg du Temple Paris,2023-09-27T05:19:39.668000Z,True,0.0,1695790947,True,1,1,58,49368561.0,11036,['creditcard'],velib,
24,3,3c7c067b5bac73d5215d3d88b5a6f1cd,48.88879,2.3785,Place de l'Édit de Nantes,2023-09-27T05:19:39.638000Z,True,1.0,1695791055,True,1,1,30,213699913.0,19125,['creditcard'],velib,
49,1,fa4f05e4db4a26862574e62b0f424b05,48.88873214926474,2.2881576418876652,Anatole France - Louise Michel,2023-09-27T05:19:38.763000Z,True,0.0,1695790581,True,1,1,50,378626842.0,23009,['creditcard'],velib,
31,2,e43e538651aacb7e828a30017d503a79,48.86446597201,2.3660597205162,Temple - Jean-Pierre Timbaud,2023-09-27T05:19:39.859000Z,False,0.0,1695791038,False,1,1,36,15298647.0,11040,,velib,
20,6,51802b48685ec3506c95609b9babbf9f,48.83091743371036,2.2790706530213356,Guynemer - Séverine,2023-09-27T05:19:40.737000Z,True,2.0,1695790847,True,1,1,26,933214552.0,21313,['creditcard'],velib,
10,52,0d4e1bab912f432afd3198c04735685a,48.85337548426,2.3828620836139,Jean Macé - Faidherbe,2023-09-27T05:19:40.515000Z,True,0.0,1695790951,True,1,1,63,210090269.0,11007,['creditcard'],velib,
15,15,8d3e4568cdcb9e5ff191029b862bba6a,48.89432034553156,2.432552274419542,Gaston Roussel - Commune de Paris,2023-09-27T05:19:40.097000Z,True,7.0,1695791050,True,1,1,30,376664868.0,32303,['creditcard'],velib,
30,5,725d29d84f7137c5578500a657301181,48.87660163459077,2.3129771277308464,Bienfaisance - Place de Narvik,2023-09-27T05:19:38.690000Z,False,3.0,1695791062,False,1,1,36,205955605.0,8035,,velib,
5,9,fb312eb426443a0fefa4f36dfd068b60,48.842647778701,2.3861649278137,Montgallet - Charenton,2023-09-27T05:19:39.920000Z,True,1.0,1695791036,True,1,1,16,27414945.0,12027,['creditcard'],velib,
8,16,26c2ac5812042b875b3eb4b926bcd75d,48.823933787309,2.2606918215752,Place Jacques Madaule,2023-09-27T05:19:40.850000Z,False,1.0,1695791016,False,1,1,25,38263504.0,21305,,velib,
9,5,8882402df59791a07752d171af7345b9,48.868976638826,2.3623438552022,Bourse du Travail,2023-09-27T05:19:39.615000Z,True,1.0,1695790844,True,1,1,17,338824395.0,10011,['creditcard'],velib,
26,1,76240150d4ee35e563b890f0721b592c,48.85528017533187,2.337574325501919,Jacques Callot - Mazarine,2023-09-27T05:19:40.226000Z,True,0.0,1695791041,True,1,1,28,66491370.0,6013,['creditcard'],velib,
8,34,80e7409eb7fe7c76c43c8a4d73d4cb73,48.871379874257,2.3698963836667,Parmentier - Hôpital Saint-Louis,2023-09-27T05:19:40.272000Z,True,1.0,1695791072,True,1,1,43,66491392.0,10113,['creditcard'],velib,
15,13,a70f5619affa1b57b55552979476a5e6,48.87866794788021,2.2420343756675725,Richard Wallace - Place du 8 Mai 1945,2023-09-27T05:19:39.435000Z,True,3.0,1695790952,True,1,1,30,353462947.0,28001,['creditcard'],velib,
27,1,9c085b9301af6eb9d127e14afbfdbfd1,48.859403,2.276522,Faustin Hélie - Desbordes-Valmore,2023-09-27T05:19:38.668000Z,False,0.0,1695790574,False,1,1,33,213688824.0,16111,,velib,
18,2,d243689d6ca258a5f5c454d856bde33a,48.85291595620935,2.352195717394352,Quai aux Fleurs - Pont Saint-Louis,2023-09-27T05:19:40.628000Z,True,2.0,1695790862,True,1,1,21,27269170.0,4003,['creditcard'],velib,
27,5,50c909bb60eab69572fd6530b3b3c096,48.846454,2.415514,Porte de Vincennes,2023-09-27T05:19:40.381000Z,False,1.0,1695791018,False,1,1,33,27071684.0,12115,,velib,
13,7,6c79e98afe3bff87a4889679567d3449,48.888013281448,2.3737595955229,Flandre - Riquet,2023-09-27T05:19:40.301000Z,True,6.0,1695790994,True,1,1,21,66491404.0,19005,['creditcard'],velib,
51,8,4d33a2fd0a030ce0bbf6bb191311f031,48.8242469,2.3186306,Place de la Porte de Châtillon,2023-09-27T05:19:40.018000Z,True,7.0,1695791035,True,1,1,59,652120758.0,14021,['creditcard'],velib,
4,16,86245c11064e6c59600ed1a72ca437b7,48.850500564921,2.3890856287864,Montreuil - Gonnet,2023-09-27T05:19:38.837000Z,False,0.0,1695790933,False,1,1,24,501318622.0,11115,,velib,
27,18,d0ea021404c44b9d7c69aeffdfece603,48.85147910413369,2.296709530055523,Dupleix - du Guesclin,2023-09-27T05:19:40.281000Z,True,0.0,1695791072,True,1,1,47,66491393.0,15025,['creditcard'],velib,
7,8,d46509da3786c640cb7abb6847e3b8c7,48.844291,2.3896481,Montgallet - Reuilly,2023-09-27T05:19:38.699000Z,True,3.0,1695790915,True,1,1,16,323486248.0,12013,['creditcard'],velib,
40,3,5613abda7bf456dc93404430dbcdb904,48.857202661803,2.3152771219611,Varenne,2023-09-27T05:19:41.272000Z,True,1.0,1695791059,True,1,1,47,82337423.0,7015,['creditcard'],velib,
40,3,e197f2f4c1946e4ec4ab4834b612aec1,48.878438631226516,2.297727763652802,Place des Ternes.,2023-09-27T05:19:39.616000Z,True,2.0,1695790705,True,1,1,46,341388492.0,17045,['creditcard'],velib,
10,12,4d6b7bfa6acf7a9fd0426f9c4598a5c1,48.89484799296163,2.4188338592648506,Ancien Canal - Hélène Brion,2023-09-27T05:19:38.565000Z,True,8.0,1695790969,True,1,1,23,1062223873.0,35018,['creditcard'],velib,
3,16,27c2d6c0f45eca5f901bd7ace73cd681,48.886674849730184,2.3613611608743668,Departement - Pajol,2023-09-27T05:19:40.887000Z,False,5.0,1695791074,False,1,1,19,49085250.0,18110,,velib,
6,16,cb13dedb8faacca75a1005939ccf9a9d,48.85218705621,2.3890301585197,Boulets - Voltaire,2023-09-27T05:19:41.226000Z,False,2.0,1695791039,False,1,1,24,478952881.0,11009,,velib,
52,4,9fb2c6e479a17058ca747ba526e4dfa6,48.894155633419,2.3143893107772,Fragonard - Porte de Clichy,2023-09-27T05:19:40.294000Z,False,3.0,1695790988,False,1,1,56,66491401.0,17011,,velib,
14,0,460548fb230dca71767d0e3a3bb68cc9,48.849268481958,2.3704585433006,Lacuée - Lyon,2023-09-27T05:19:39.114000Z,True,0.0,1695791073,True,1,1,16,39626277.0,12002,['creditcard'],velib,
28,4,7df813454e9d096e9b681b05d95376fe,48.878772242510465,2.270772233605385,Jardin d'Acclimatation,2023-09-27T05:19:40.386000Z,True,1.0,1695790966,True,1,1,33,470807791.0,16121,['creditcard'],velib,
26,13,b143c2202a98200b5593575c25a12aac,48.83920384329242,2.320883944630623,Gare Montparnasse - René Mouchotte,2023-09-27T05:19:38.817000Z,True,10.0,1695790969,True,1,1,39,82445192.0,14117,['creditcard'],velib,
12,12,8849744b960000fce78be23da961afa2,48.8932644350857,2.4126765131950383,Charles de Gaulle - Jean Lolive,2023-09-27T05:19:39.168000Z,False,3.0,1695790964,False,1,1,26,339797666.0,35014,,velib,
27,10,482e8838210cb3275d79f9d358d36550,48.893479576183,2.2775253653526,Paul Vaillant Couturier - Chaptal,2023-09-27T05:19:40.864000Z,True,2.0,1695791013,True,1,1,39,568135465.0,23001,['creditcard'],velib,
9,12,8fb78a943a8de0988762c5ffa5ca9655,48.85716405838368,2.422847449779511,Place de la Fraternité,2023-09-27T05:19:40.550000Z,True,10.0,1695791060,True,1,1,22,129152818.0,31709,['creditcard'],velib,
16,6,3603e235012ae327335a8e4461486b76,48.834001935501,2.3703888058662,Vincent Auriol - Louise Weiss,2023-09-27T05:19:41.110000Z,False,2.0,1695790691,False,1,1,22,567884788.0,13049,,velib,
38,2,1a227b9467b91fe855cd55071b49c57a,48.80893199114179,2.3349460959434514,Gare de Laplace,2023-09-27T05:19:40.196000Z,True,0.0,1695790787,True,1,1,43,214102967.0,41102,['creditcard'],velib,
17,5,bc3731be62f9914a887f9516b315c83d,48.881804409079656,2.2921088710427284,Bayen - Pereire,2023-09-27T05:19:41.047000Z,False,2.0,1695790649,False,1,1,22,54000597.0,17037,,velib,
8,3,ca9c91a3e9e0eedb5b7199ef41896e1d,48.88339733854529,2.371074522980134,Quai de la Loire - Jean Jaurès,2023-09-27T05:19:39.328000Z,True,1.0,1695791036,True,1,1,16,102319838.0,19004,['creditcard'],velib,
60,7,2b5f17fba9f9b98be89041aa0992a91f,48.84395729494058,2.3790882155299187,Gare de Lyon - Roland Barthes,2023-09-27T05:19:39.780000Z,False,2.0,1695790889,False,1,1,68,82423726.0,12106,,velib,
48,16,c440d5f033c71b75a5390fdc670f7643,48.87525984132485,2.249415814876557,Route de Sèvres - Porte de Bagatelle,2023-09-27T05:19:39.433000Z,True,6.0,1695791021,True,1,1,66,652192395.0,16124,['creditcard'],velib,
20,5,4c87601ee15ead2a7a475813822c3366,48.872933,2.309796,Commandant Rivière,2023-09-27T05:19:40.565000Z,True,4.0,1695790972,True,1,1,27,49403716.0,8033,['creditcard'],velib,
24,7,050c777552247f22a0333b0f1c69bae8,48.88713901475306,2.314494143994255,Gare de Pont-Cardinet,2023-09-27T05:19:39.258000Z,True,5.0,1695790745,True,1,1,34,129091653.0,17017,['creditcard'],velib,
22,25,7df77f9738f0852d4f434eb218cdfe41,48.90390751882016,2.3830059170722966,Bordier - Félix Faure,2023-09-27T05:19:40.812000Z,False,9.0,1695790633,False,1,1,48,571923059.0,33003,,velib,
35,2,b932c4981db56713f5cdf8f0bd6812b6,48.84718551002347,2.3534858599305153,Jussieu - Fossés Saint-Bernard,2023-09-27T05:19:40.945000Z,True,1.0,1695791071,True,1,1,39,54000544.0,5021,['creditcard'],velib,
21,4,b74512b9979ac7824c734c07bbd48fc4,48.85160266522164,2.398403047037931,Charonne - Avron,2023-09-27T05:19:40.305000Z,True,1.0,1695790571,True,1,1,27,66491405.0,20043,['creditcard'],velib,
26,4,96a76f04f00a6169b93feb87cca3493c,48.90812110228388,2.378623187541962,Félix Faure - Sadi Carnot,2023-09-27T05:19:41.115000Z,True,4.0,1695790992,True,1,1,33,54000635.0,33009,['creditcard'],velib,
47,7,9045305884a8b94dd89e67993cc8828d,48.84756654526,2.3025691509247,Square Cambronne,2023-09-27T05:19:40.691000Z,True,0.0,1695790897,True,1,1,59,82450803.0,15010,['creditcard'],velib,
10,12,a472c5c568e8bf512f007046421bde57,48.890097168851746,2.317377626895905,Lemercier - Cardinet,2023-09-27T05:19:39.205000Z,False,2.0,1695790867,False,1,1,24,54000599.0,17111,,velib,
17,8,f92c2092ad97c514670795992a513687,48.868807,2.185428,18 juin 1940 - Buzenval,2023-09-27T05:19:39.914000Z,False,8.0,1695790859,False,1,1,25,1062179194.0,25005,,velib,
13,13,7ed7da9dbe8eb6d68a9280817ef64fdc,48.89835196548483,2.386150136590004,Porte de la Villette,2023-09-27T05:19:41.190000Z,True,7.0,1695790724,True,1,1,27,27278603.0,19115,['creditcard'],velib,
21,2,4a279a72d89c67bdfea32567e15d81f0,48.83617286014242,2.319392143923804,Ouest - Château ,2023-09-27T05:19:40.435000Z,True,2.0,1695791037,True,1,1,23,13497763.0,14034,['creditcard'],velib,
38,2,240599c38090d4aeec006a2ec81194f7,48.91835629408464,2.3523425683379173,Place aux Étoiles,2023-09-27T05:19:38.760000Z,True,1.0,1695790572,True,1,1,40,653042442.0,32010,['creditcard'],velib,
12,5,4d67d47bc51f094cdc80cef25cb5296f,48.8643275,2.2724174,Flandrin - Henri Martin,2023-09-27T05:19:41.299000Z,True,3.0,1695791047,True,1,1,18,49807107.0,16018,['creditcard'],velib,
5,53,7e36c938c73f88c7802fbb47008c7a5e,48.852888670365,2.3891476408096,Alexandre Dumas - Voltaire,2023-09-27T05:19:40.709000Z,False,1.0,1695791039,False,1,1,59,82417874.0,11102,,velib,
12,24,cf2845fd7cdf82c5822101739d3598cf,48.827817291597846,2.3705490678548813,Jean Colly - Tolbiac,2023-09-27T05:19:40.598000Z,True,9.0,1695791008,True,1,1,36,378648513.0,13045,['creditcard'],velib,
45,2,d2ff4e868f7aeb9639f2ae96c6e83512,48.832308,2.38637,Pirogues de Bercy - Libourne,2023-09-27T05:19:41.320000Z,True,2.0,1695790667,True,1,1,49,210747224.0,12034,['creditcard'],velib,
14,8,a06d0b8d58b7312e6952148b677d9a0d,48.81240466867336,2.3617091774940495,Place Jean-Baptiste Clément,2023-09-27T05:19:38.855000Z,False,4.0,1695791073,False,1,1,25,85165045.0,42707,,velib,
15,9,d585f0eeb4e482d9691e21e1e2d53095,48.870797375639214,2.2277003154158592,Verdun - Place Henri IV,2023-09-27T05:19:39.761000Z,True,1.0,1695790822,True,1,1,26,82571110.0,21502,['creditcard'],velib,
12,32,f2c38d4dc146bdbc7ce0b998d16f85b3,48.839988788912,2.4005256685521,Picpus - Louis Braille,2023-09-27T05:19:39.435000Z,True,10.0,1695790986,True,1,1,44,129059516.0,12038,['creditcard'],velib,
25,5,5bbe3ddccd0a479b991ea8fbb9ec9695,48.8479394142243,2.2608396783471107,Porte d'Auteuil,2023-09-27T05:19:39.207000Z,False,4.0,1695790898,False,1,1,33,27363103.0,16034,,velib,
16,4,39f7a9df157d3880003cc0d4a8fdf993,48.825030852925,2.3264128693982,Sarrette - Général Leclerc,2023-09-27T05:19:39.983000Z,True,2.0,1695791005,True,1,1,22,27415179.0,14019,['creditcard'],velib,
15,10,7678b523b0deb45d09512d7129af7355,48.852566752033766,2.403928068708116,Réunion - Avron,2023-09-27T05:19:40.654000Z,False,5.0,1695791050,False,1,1,26,85145704.0,20132,,velib,
54,4,330a64235b680e966b0d2fba023bc75d,48.851355779579,2.369220033288,Bastille - Biscornet,2023-09-27T05:19:39.370000Z,True,3.0,1695790752,True,1,1,62,84986959.0,12001,['creditcard'],velib,
18,7,c60e64b99a2e67f10e36128ac8ba9735,48.8701796,2.3967273,Square des Saint-Simoniens,2023-09-27T05:19:40.800000Z,False,7.0,1695791068,False,1,1,25,26958435.0,20119,,velib,
10,8,4ca58fd78dc9d3a72786b6ab86d4f643,48.88650687534334,2.3938155401308374,Petit - Manin,2023-09-27T05:19:40.718000Z,True,1.0,1695790968,True,1,1,22,6385.0,19019,['creditcard'],velib,
25,11,08511e1c657595335e7abecedf7aeaa5,48.82663907252554,2.4059280753135686,Place des Marseillais,2023-09-27T05:19:38.587000Z,True,4.0,1695790943,True,1,1,37,82550925.0,42207,['creditcard'],velib,
18,17,0630c12063bbf894034eea8afa6f7277,48.88115023337061,2.480436824262142,Gare Rosny-Bois-Perrier,2023-09-27T05:19:38.819000Z,True,4.0,1695791055,True,1,1,36,1062192012.0,31103,['creditcard'],velib,
3,22,c890de5a4ae713ea20587509c5883323,48.888912037698766,2.195632159709931,Chanzy - Sud-Est,2023-09-27T05:19:39.649000Z,False,12.0,1695790964,False,1,1,25,475524450.0,92003,,velib,
37,2,51c8b18ffcb64a56b46425c69aa6c30d,48.845665,2.355653,Jussieu - Guy de la Brosse,2023-09-27T05:19:40.732000Z,False,0.0,1695790806,False,1,1,40,653048150.0,5119,,velib,
3,21,3ed17c508b4538fcf203e3114082ac0c,48.90271566255436,2.3933270573616032,Gabrielle Josserand - Edouard Vaillant,2023-09-27T05:19:39.224000Z,True,3.0,1695790963,True,1,1,25,126175087.0,35003,['creditcard'],velib,
31,2,e0a40ad9762d08d8458b3e099bb8307a,48.851904891406384,2.347842156887055,Square René Viviani - Montebello,2023-09-27T05:19:38.682000Z,True,0.0,1695791050,True,1,1,34,653050378.0,5121,['creditcard'],velib,
7,15,78e3071882b1e611eecbcd1724458d34,48.89206174403158,2.4091735482215886,Jean Lolive - Parc Stalingrad,2023-09-27T05:19:38.728000Z,True,7.0,1695790964,True,1,1,22,244400797.0,35009,['creditcard'],velib,
31,0,6326b14961097287778d5449f4f5a5fb,48.878199928923124,2.2992860188665043,Courcelles - Place des Ternes,2023-09-27T05:19:39.242000Z,False,0.0,1695790580,False,1,1,31,129001431.0,8055,,velib,
39,21,ad02173862ed52d509d3b582cba81519,48.845847561366,2.3017574474216,Cambronne - Villa Croix Nivert,2023-09-27T05:19:39.614000Z,False,0.0,1695790945,False,1,1,62,82455731.0,15011,,velib,
31,3,a4ea97a5b4ecaee85ddf51406dc59412,48.903281401126755,2.368072383105755,Victor Hugo - Magasins Généraux,2023-09-27T05:19:39.123000Z,False,1.0,1695790890,False,1,1,34,473204291.0,33001,,velib,
25,17,52927eb9fdf2015b999d3ec69d474291,48.875674400851,2.3265598341823,Gare Saint-Lazare - Cour du Havre,2023-09-27T05:19:38.773000Z,True,13.0,1695791065,True,1,1,45,394404659.0,8002,['creditcard'],velib,
1,26,5cf3b0f1e9826108771f269dfce91df2,48.905169868129036,2.3023840785026555,Guichet - Jean Jaurès,2023-09-27T05:19:41.328000Z,False,5.0,1695791062,False,1,1,28,406806401.0,21109,,velib,
16,1,49b64991a5aead64693a230a48917b50,48.83976676978202,2.347510904073715,Claude Bernard - Arbalète,2023-09-27T05:19:41.192000Z,False,1.0,1695790975,False,1,1,17,653044270.0,5114,,velib,
24,6,2752924d95aa4e9666f9bb3b348c5510,48.858102885107,2.3004072904587,Rapp - Place du Général Gouraud,2023-09-27T05:19:40.960000Z,True,3.0,1695791029,True,1,1,31,54000550.0,7024,['creditcard'],velib,
16,8,098a11984f22c62caa25ce6e07cd5f42,48.84116092896631,2.32459545135498,Edgar Quinet - Gaité,2023-09-27T05:19:41.013000Z,True,7.0,1695791070,True,1,1,27,54000582.0,14001,['creditcard'],velib,
4,19,eeb22543303375548997292b27e62bde,48.85593932186797,2.441531717777252,Place Carnot,2023-09-27T05:19:41.322000Z,True,2.0,1695791046,True,1,1,25,217235307.0,31012,['creditcard'],velib,
6,44,fe560dae7ea818b32be511400844fcf1,48.824407,2.418455,Gravelle - Route du Bac,2023-09-27T05:19:38.919000Z,True,13.0,1695791007,True,1,1,51,210748575.0,12126,['creditcard'],velib,
57,5,0f4c114024db04bae656132fbb9ff0c0,48.8685433,2.3600032,René Boulanger - Lancry,2023-09-27T05:19:40.383000Z,True,1.0,1695790699,True,1,1,62,218903767.0,10001,['creditcard'],velib,
42,0,e6f6be09059575bf467b799b1595183f,48.86218070933143,2.2617871686816216,Ceinture du Lac Inferieure - Saint-Cloud,2023-09-27T05:19:40.371000Z,True,0.0,1695790669,True,1,1,42,129086648.0,16129,['creditcard'],velib,
21,5,3f12591c7b9417fc704044046aafc68e,48.8949922,2.4253764,Anatole France - Jean Lolive,2023-09-27T05:19:39.021000Z,True,4.0,1695790926,True,1,1,28,217572769.0,35019,['creditcard'],velib,
15,7,9f9584cd914c3f7c44e1d972a8403035,48.83329880233322,2.3173383995890617,Boyer-Barret - Raymond Losserand,2023-09-27T05:19:41.323000Z,True,2.0,1695790511,True,1,1,23,214298601.0,14104,['creditcard'],velib,
21,0,681dc5faed71ff141b9538db0677139b,48.87195626635528,2.384981390278095,Piat - Parc de Belleville,2023-09-27T05:19:39.581000Z,False,0.0,1695790983,False,1,1,21,129125489.0,20113,,velib,
29,2,b62e4465312c4da84a91a204b9f8fd8c,48.84930687084088,2.417949736118317,Lagny - Joffre,2023-09-27T05:19:38.593000Z,False,0.0,1695790917,False,1,1,31,214122655.0,41604,,velib,
15,1,7b353ebac8ff456e4ef3f00a7cdaff49,48.881077914129,2.3095492646098,Parc Monceau,2023-09-27T05:19:39.679000Z,False,0.0,1695790718,False,1,1,18,15461933.0,17018,,velib,
37,4,8d249a46e5837f8bfcc93e5554e19b97,48.8227639,2.3249313,Porte d'Orléans,2023-09-27T05:19:41.169000Z,True,2.0,1695790960,True,1,1,48,43155320.0,14018,['creditcard'],velib,
13,8,75c417c121c5c1d315ba5132048763be,48.83629973941847,2.3104464635252953,Place Falguière,2023-09-27T05:19:40.637000Z,False,2.0,1695790893,False,1,1,23,82458977.0,15017,,velib,
23,4,7fd490acafba9293944d4820c8aa93e9,48.841486,2.430793,Vignerons - Minimes,2023-09-27T05:19:41.116000Z,True,2.0,1695791061,True,1,1,29,214146056.0,43006,['creditcard'],velib,
41,6,3bbfdd931d250dcdfe674240bf4405b0,48.850785261674964,2.2871585190296173,Emeriau - Place de Brazzaville,2023-09-27T05:19:39.743000Z,True,2.0,1695791035,True,1,1,51,129077035.0,15029,['creditcard'],velib,
21,3,71308f42372767bb03fbb56021e1f5b1,48.852060203583,2.3017993569374,Ecole Militaire - Place Joffre,2023-09-27T05:19:41.319000Z,True,2.0,1695790966,True,1,1,26,476053320.0,7111,['creditcard'],velib,
27,0,11761ede90bacb1f3a79927ddbba1213,48.84369030864,2.3657163977623,Gare d'Austerlitz - Quai Saint-Bernard,2023-09-27T05:19:39.822000Z,True,0.0,1642540077,True,0,0,27,35196898.0,13104,['creditcard'],velib,
31,3,4e270e7543dbc1e3af8ee9cbe22b82d3,48.850310432924466,2.345015835298588,Sommerard - Saint-Jacques,2023-09-27T05:19:40.604000Z,True,1.0,1695791014,True,1,1,34,15308782.0,5002,['creditcard'],velib,
16,1,7321eda6529f6da9b6df36a4d1074102,48.884146759782,2.341845408082,Tardieu - Chappe,2023-09-27T05:19:41.239000Z,False,1.0,1695790717,False,1,1,18,216473073.0,18005,,velib,
17,0,188f9c5c9d2752bb8e66481ce5d8044d,48.87397217237368,2.348388757504776,Petites Ecuries - Faubourg Poissonnière,2023-09-27T05:19:39.986000Z,False,0.0,1695790965,False,1,1,17,37521.0,10005,,velib,
28,4,1829d385aa95e05208441b515b317fbc,48.839794573906,2.3826066032052,Gare de Bercy,2023-09-27T05:19:39.312000Z,True,1.0,1695790999,True,1,1,35,82421994.0,12024,['creditcard'],velib,
12,4,f07adebc198039365b1aba19ad1a65e8,48.8867667,2.326228,Pierre Ginier - Clichy,2023-09-27T05:19:40.385000Z,True,0.0,1695790747,True,1,1,16,27033125.0,18045,['creditcard'],velib,
44,1,b7178daae0d22253ae3831c6d4044eeb,48.883474535757,2.326493114233,Batignolles - Place de Clichy,2023-09-27T05:19:40.147000Z,True,1.0,1695790892,True,1,1,47,215495494.0,8012,['creditcard'],velib,
10,8,04d896767d79f9d0b9d16a0f3d33eb33,48.89104123261663,2.340014585442034,Francoeur - Marcadet,2023-09-27T05:19:40.603000Z,True,1.0,1695790485,True,1,1,20,129103849.0,18020,['creditcard'],velib,
16,7,1f74ab81295c9ceed1a5c6933aee68bc,48.87033205312931,2.388777695596218,Henri Chevreau - Couronnes,2023-09-27T05:19:39.654000Z,True,1.0,1695790749,True,1,1,27,1057009034.0,20136,['creditcard'],velib,
44,3,ca20583d5caa1989886730816f97399d,48.839061952159746,2.3499782010912895,Pascal - Claude Bernard,2023-09-27T05:19:39.898000Z,True,2.0,1695790887,True,1,1,49,82334007.0,5026,['creditcard'],velib,
30,2,56c2da4066fd35120072927ac72d88b2,48.844182577315,2.3640366643667,Place Valhubert,2023-09-27T05:19:39.887000Z,True,1.0,1695790978,True,1,1,37,653046029.0,5116,['creditcard'],velib,
23,0,d69a9408f670d0ab0a5ad7db111b1eb4,48.87352990026496,2.303444892168045,Lamennais - Washington ,2023-09-27T05:19:38.571000Z,False,0.0,1695790936,False,1,1,26,216039437.0,8102,,velib,
15,0,53b575bc33e915c4fcf5142e80eeb3f4,48.86926,2.289918,Lauriston - Copernic,2023-09-27T05:19:40.590000Z,False,0.0,1695790891,False,1,1,19,213686196.0,16006,,velib,
1,19,da06901ff9c1f080a4e8d1819ed38520,48.8258020742942,2.2487989068031315,Pierre Grenier - Pont de Billancourt,2023-09-27T05:19:41.334000Z,False,3.0,1695791043,False,1,1,21,129130397.0,21013,,velib,
16,35,56c7339743765c3a76dcbdcd16d16e82,48.83671783466264,2.283664085650799,Vasco de Gama,2023-09-27T05:19:41.337000Z,False,3.0,1695770594,False,1,1,54,41566122.0,15055,,velib,
0,0,4d36ffe89447b54557da625279984139,48.88666162207,2.2843274474144,Bineau - Louise Michel,2023-09-27T05:19:41.114000Z,False,0.0,1688614813,False,0,0,0,54000634.0,23011,,velib,
39,10,f9ee1ec48f2884724409533079df826d,48.90782845483013,2.307887971401215,Professeur René Leriche - Général Leclerc ,2023-09-27T05:19:38.625000Z,True,4.0,1695790904,True,1,1,50,419381597.0,21111,['creditcard'],velib,
33,3,c97c5cffb3759b0598a9d8ac07c3f8da,48.833218027457846,2.2677567601203923,Bara - Henri Farman,2023-09-27T05:19:40.448000Z,False,2.0,1695791073,False,1,1,36,434419150.0,21308,,velib,
16,21,e8da051a0e5bc7279c17af17edac7933,48.92034156960326,2.3438543826341625,Carrefour Pleyel,2023-09-27T05:19:39.968000Z,True,11.0,1695791045,True,1,1,36,653046369.0,32012,['creditcard'],velib,
18,18,343827d04125679d3aa87c61f025e562,48.89587780769155,2.3226776719093327,Navier - Epinettes,2023-09-27T05:19:41.045000Z,True,2.0,1695790716,True,1,1,36,54000595.0,17007,['creditcard'],velib,
16,11,d3dc2fee037a699450ab092e9bee82c0,48.85345855607243,2.3772463581947094,Ledru-Rollin - Charonne,2023-09-27T05:19:39.343000Z,False,4.0,1695791022,False,1,1,32,426772876.0,11114,,velib,
23,2,3fa13c4ecf3f1422f7308f52233b3452,48.8703459,2.3842214,Parc de Belleville - Julien Lacroix,2023-09-27T05:19:41.290000Z,False,0.0,1695791047,False,1,1,26,74620630.0,20040,,velib,
10,2,f4e9ed48851ec3d48d05780e2478330f,48.876156054271,2.3609149083206,Gare de l'Est - Verdun,2023-09-27T05:19:41.234000Z,False,1.0,1695790607,False,1,1,14,129036192.0,10023,,velib,
0,33,a6533a9ecdee68f1a242f9684412591b,48.844867319554,2.3825789350545,Charenton - Place du Col Bourgoin,2023-09-27T05:19:38.985000Z,True,5.0,1695791022,True,1,1,35,82421013.0,12011,['creditcard'],velib,
10,13,5021fe96eef9583e4fb9583d94017826,48.90245471981591,2.3128929734230046,Morice - Général Leclerc,2023-09-27T05:19:39.672000Z,False,4.0,1695791056,False,1,1,25,129134084.0,21105,,velib,
42,4,b0c0a9b0207679491ab4df65860392ad,48.874330377560476,2.3621229082345963,Lucien Sampaix - Récollets,2023-09-27T05:19:40.759000Z,True,2.0,1695790599,True,1,1,46,427678168.0,10015,['creditcard'],velib,
7,27,c81a55e172104b19b387bfd4a02bab9c,48.823316,2.354336,Place Jean Delay,2023-09-27T05:19:40.780000Z,False,8.0,1695790946,False,1,1,35,210754072.0,13026,,velib,
49,1,b91a0338e087aba86af02593847f0d0b,48.8984179,2.2791311,Pont de Levallois-bécon ,2023-09-27T05:19:39.673000Z,True,0.0,1695790904,True,1,1,50,419991048.0,23002,['creditcard'],velib,
5,25,cebc676249dd66560e19c0cf9e6aafea,48.84487893836502,2.2905756533145905,Place Violet,2023-09-27T05:19:38.828000Z,False,2.0,1695791067,False,1,1,30,357409723.0,15033,,velib,
17,12,8f47c42da61baceafe1d4fcb4aa40b1e,48.82890454823947,2.31648076325655,Jonquoy - Didot,2023-09-27T05:19:40.632000Z,False,4.0,1695790933,False,1,1,30,963786819.0,14130,,velib,
24,3,31898cae6430324c73533caedfbb72b6,48.8525288,2.4877332,Place du Général de Gaulle,2023-09-27T05:19:40.437000Z,True,3.0,1695790618,True,1,1,28,976762284.0,41207,['creditcard'],velib,
29,3,5d71e734c3ba190fca3cc0e653b69597,48.858942986179,2.3314182047146,Quai Voltaire,2023-09-27T05:19:40.949000Z,True,1.0,1695791072,True,1,1,32,54000548.0,7006,['creditcard'],velib,
49,2,a6f79ccace6709222f6568835e596aea,48.832294,2.3674523,Dunois - Clisson,2023-09-27T05:19:40.641000Z,True,0.0,1695791016,True,1,1,51,224598098.0,13043,['creditcard'],velib,
23,4,a535a8a7e5afca51b036fc8257bf81cb,48.83484585882868,2.2479459643363957,Edouard Vaillant - Paul-Adolphe Souriau,2023-09-27T05:19:39.132000Z,False,0.0,1695790599,False,1,1,28,252339799.0,21019,,velib,
17,1,e47a8672eba3d872f3e61d5a330d2d46,48.84274150283194,2.335021197795868,Michelet - Assas,2023-09-27T05:19:40.533000Z,False,1.0,1695790548,False,1,1,18,224589573.0,6018,,velib,
26,8,96d117e55dc5c0e9e57b1b01fce3ad2f,48.8354337,2.4077132,Porte Dorée,2023-09-27T05:19:40.657000Z,True,2.0,1695790833,True,1,1,36,220502135.0,12032,['creditcard'],velib,
15,40,1d49018294e5592b48197e5c57c5bf53,48.83868901709515,2.2818081825971603,Félix Faure - Lourmel,2023-09-27T05:19:39.762000Z,True,5.0,1695791061,True,1,1,58,253357936.0,15032,['creditcard'],velib,
30,2,ff670cd94cced5c75e82e9e0c397c894,48.87660391892763,2.404769691129476,Belleville - Porte des Lilas,2023-09-27T05:19:38.788000Z,False,2.0,1695790568,False,1,1,32,129114993.0,19037,,velib,
8,11,f44bf707a0a363eaba8bc82581e6424e,48.8694370761222,2.40539657537972,Haxo - Surmelin,2023-09-27T05:19:39.191000Z,False,8.0,1695790726,False,1,1,21,129124069.0,20109,,velib,
29,7,0e1e6b316c717863017854fca0971f42,48.876327,2.3585464,Gare de l'Est - Place du 11 Novembre 1918,2023-09-27T05:19:41.226000Z,True,1.0,1695791036,True,1,1,40,476183970.0,10165,['creditcard'],velib,
32,21,83911f48161327bb1e16d51784820e05,48.897488,2.343996,Porte de Clignancourt.,2023-09-27T05:19:40.248000Z,True,10.0,1695790869,True,1,1,56,221041655.0,18032,['creditcard'],velib,
28,4,7d4a1deff9c53059e2650658661a840c,48.83094844846017,2.37965351592796,Primo Levi - Frigos,2023-09-27T05:19:40.055000Z,True,2.0,1695791003,True,1,1,34,129061615.0,13016,['creditcard'],velib,
21,1,323ff75e83a2550646f17439b335ff4a,48.850188262662,2.3275961726904,Place Alphonse Deville,2023-09-27T05:19:38.829000Z,False,1.0,1695790610,False,1,1,23,221094844.0,6107,,velib,
11,19,95c1435aa0f5215f55c0f05b26a54aa5,48.946504,2.2496396,Hôtel de Ville d'Argenteuil,2023-09-27T05:19:38.827000Z,True,13.0,1695790865,True,1,1,30,977206088.0,51003,['creditcard'],velib,
53,1,cd8520e3523db2cabae509e756e9c13c,48.85023459321703,2.3303819820284843,Mézières - Rennes ,2023-09-27T05:19:38.769000Z,True,1.0,1695790770,True,1,1,55,220726050.0,6103,['creditcard'],velib,
9,54,17a8f11795484ba98d4567f6b2a4a81f,48.83959442800459,2.3010657727718353,Place Adolphe Cherioux - Vaugirard,2023-09-27T05:19:39.599000Z,True,3.0,1695791049,True,1,1,63,254224239.0,15038,['creditcard'],velib,
16,5,7e8a8d0fb1e162341d0d55ed86f2ed09,48.884432270368,2.2608044743538,Charles de Gaulle - Madrid,2023-09-27T05:19:39.889000Z,True,5.0,1695790946,True,1,1,22,252301607.0,22005,['creditcard'],velib,
6,13,a3ed081725c7cb0dd19cd556164300db,48.8862524447104,2.3689296841621403,Tanger - Place du Maroc,2023-09-27T05:19:39.383000Z,False,5.0,1695791070,False,1,1,19,129116697.0,19109,,velib,
13,6,f7fbba029f890b7c1689129b370b9e53,48.87068263384462,2.398959602331646,Ménilmontant - Pelleport,2023-09-27T05:19:40.384000Z,False,6.0,1695790869,False,1,1,19,129119449.0,20036,,velib,
26,12,a789bcac867c5fc853fe60539ff272dd,48.85493692155721,2.436049282550812,Vincennes - Douy-Delcupe,2023-09-27T05:19:40.461000Z,False,3.0,1695790922,False,1,1,38,977409509.0,31019,,velib,
9,25,b265bb38050ed4bacc98c10ad3a7e671,48.92540695835961,2.3644426837563515,Place du Cornillon - Stade de France,2023-09-27T05:19:40.337000Z,True,8.0,1695790999,True,1,1,34,653055049.0,32014,['creditcard'],velib,
2,32,a2047790eab21c53adbba02ed0bfe5bc,48.8563358,2.3829901,Belfort - Voltaire,2023-09-27T05:19:39.243000Z,True,3.0,1695791033,True,1,1,39,43165673.0,11020,['creditcard'],velib,
21,5,e10334329979d79bc75ae65ed0689017,48.898708366365064,2.3295360803604126,Porte de Saint-Ouen - Henri Huchard,2023-09-27T05:19:39.281000Z,False,1.0,1695790766,False,1,1,26,1057769632.0,17124,,velib,
37,3,f467fe438cbe1dce4294f2dadb442ffb,48.885263,2.298286,Place du Maréchal Juin - Péreire,2023-09-27T05:19:39.232000Z,True,0.0,1695790863,True,1,1,46,213690256.0,17027,['creditcard'],velib,
20,1,b2ecfbe37576fd2c3ad451558f000232,48.857992591527,2.3469167947769,Victoria - Place du Chatelet,2023-09-27T05:19:40.770000Z,True,0.0,1695790815,True,1,1,22,82328045.0,1002,['creditcard'],velib,
14,10,3db84decfb18c8fbe9191cf0de04b66f,48.8731167,2.3593052,Vinaigriers - Magenta,2023-09-27T05:19:38.899000Z,True,2.0,1695790676,True,1,1,25,37921892.0,10012,['creditcard'],velib,
7,13,e886722f2af501a2bc3141f4b198da12,48.85249172181667,2.462034523487091,République - Danton,2023-09-27T05:19:39.584000Z,False,10.0,1695790778,False,1,1,20,1063404053.0,41204,,velib,
14,4,028ed44281b0fa4742e287043c155a98,48.82650293311,2.3092747998272,Colonel Monteil - Brune,2023-09-27T05:19:41.315000Z,False,2.0,1695790702,False,1,1,19,10968855.0,14122,,velib,
7,16,2145db942397eff83bf2a5778efe8192,48.90636459217474,2.2835066914558415,Gare d'Asnières sur Seine,2023-09-27T05:19:40.742000Z,True,5.0,1695790808,True,1,1,24,985086307.0,26001,['creditcard'],velib,
5,20,8ded3e624001e2ca893e0ee830c0946f,48.8222334178559,2.4215328320860863,Verdun - Adrien Damalix,2023-09-27T05:19:41.159000Z,True,3.0,1695791058,True,1,1,26,82508970.0,44102,['creditcard'],velib,
19,3,4dd908f32b997b30c247b8ac08c99588,48.878249,2.341181,Milton - Manuel,2023-09-27T05:19:40.357000Z,False,1.0,1695790993,False,1,1,22,653055097.0,9115,,velib,
22,2,44dca2a45e5c2cc738a308ec18fdb562,48.87979886049996,2.374839261174202,Edouard Pailleron - Simon Bolivar ,2023-09-27T05:19:41.274000Z,False,2.0,1695790743,False,1,1,24,27246227.0,19039,,velib,
13,9,fd998b7e54a70dc4887c748fc2cdb1d5,48.877532084130166,2.294512536052928,Mac-Mahon - Brey,2023-09-27T05:19:41.048000Z,True,0.0,1695790973,True,1,1,25,54000598.0,17046,['creditcard'],velib,
16,3,2a805be4d04fa8ad9ae78e94296769fb,48.84749841771691,2.26848387135299,Eglise d'Auteuil,2023-09-27T05:19:40.564000Z,False,2.0,1695790531,False,1,1,21,63297.0,16032,,velib,
24,0,dbf093a8a73193e48da63e83518e7fa5,48.88753640381415,2.334307730197907,Lepic - Armée d'Orient,2023-09-27T05:19:39.890000Z,False,0.0,1695791044,False,1,1,24,213692714.0,18113,,velib,
4,20,e8c0f773f633d966151d5adf76666915,48.84576261454011,2.2369650006294255,Jean Jaurès - Jean Baptiste Clément ,2023-09-27T05:19:41.253000Z,True,1.0,1695790955,True,1,1,24,95927849.0,21003,['creditcard'],velib,
13,10,b80eaf3c0a9b389c2730a50539982203,48.890404028589806,2.270106375217438,Château - Bineau,2023-09-27T05:19:40.873000Z,True,0.0,1695790827,True,1,1,23,102341385.0,22001,['creditcard'],velib,
22,3,e528e20a2832c24b4b3a3e360f1053a6,48.883769733273496,2.29858466343129,Courcelles - Pierre Demours,2023-09-27T05:19:40.085000Z,True,1.0,1695790930,True,1,1,26,27415327.0,17047,['creditcard'],velib,
32,6,5c2639c19391b5ecbc5fa57b45a699d2,48.892939296937605,2.3445510864257812,Mairie du 18ème,2023-09-27T05:19:41.065000Z,True,2.0,1695790966,True,1,1,40,54000605.0,18025,['creditcard'],velib,
18,10,04a30da088338d28544252beeacbc9e5,48.8862074,2.3206239,Bridaine - Lamandé,2023-09-27T05:19:38.979000Z,False,2.0,1695791025,False,1,1,29,979059925.0,17122,,velib,
12,3,3a4b41ac0677794a7209295f5699987b,48.8691543609174,2.40932246879487,Porte de Ménilmontant,2023-09-27T05:19:40.742000Z,False,3.0,1695790948,False,1,1,15,6512.0,20027,,velib,
33,0,46fb8069ca45ead7d9ed40414197cf5b,48.871815737396,2.3372015478451,Laffitte - Italiens,2023-09-27T05:19:39.245000Z,False,0.0,1695791039,False,1,1,33,27363323.0,9023,,velib,
48,12,0e68db55a1a81be48d350135377f1e4c,48.829654975522,2.2638675570488,Place Lafayette,2023-09-27T05:19:38.724000Z,True,7.0,1695791073,True,1,1,62,82584215.0,21306,['creditcard'],velib,
33,4,6ca396381dc2e5d8d179d85ae3555abd,48.86254398506782,2.403290458023548,Indre - Prairies,2023-09-27T05:19:39.777000Z,False,4.0,1695790737,False,1,1,38,85118872.0,20021,,velib,
1,19,102421308fe5b33bdbde25c736a2ea1f,48.844974,2.287283,Lourmel - Marie Skobtsov,2023-09-27T05:19:39.705000Z,False,0.0,1695790967,False,1,1,22,102289046.0,15108,,velib,
33,8,011948af9fad35dfda6e1adf45b81bed,48.8756045,2.3995549,Belleville - Télégraphe,2023-09-27T05:19:40.792000Z,False,8.0,1695790944,False,1,1,41,124402232.0,19040,,velib,
20,1,aacfd26d587b548d359e965dee4277c3,48.85229736258167,2.3414132371544834,Danton - Serpente,2023-09-27T05:19:39.699000Z,True,0.0,1695790684,True,1,1,22,100798076.0,6016,['creditcard'],velib,
25,5,7f597fd4deb148ebb2e0545b229e5bc7,48.89659571178903,2.384599149227142,Cité des Sciences et de l'Industrie,2023-09-27T05:19:39.157000Z,True,4.0,1695790926,True,1,1,30,82577019.0,19009,['creditcard'],velib,
13,26,830d78c2cc265de5070ce99ce5be32a0,48.8202823,2.473775,Place de Verdun,2023-09-27T05:19:39.692000Z,False,1.0,1695791044,False,1,1,40,985828965.0,43402,,velib,
3,17,f621ac13ababcd13d314e8416fa2a0f7,48.89383909781389,2.325953990221024,Square des Epinettes,2023-09-27T05:19:39.940000Z,False,5.0,1695790953,False,1,1,20,989753852.0,17121,,velib,
1,15,1103964029f152a0c6be5c8931f0a1b3,48.8099849920804,2.4580853059887886,Les Planètes ,2023-09-27T05:19:40.348000Z,False,2.0,1695791046,False,1,1,16,990000217.0,47006,,velib,
6,2,247b13bd4c2dde7fd4230e0ecb48863d,48.87701838803332,2.3513179644942284,Chabrol - d'Hauteville,2023-09-27T05:19:40.145000Z,False,0.0,1695791065,False,1,1,11,121025345.0,10020,,velib,
17,5,2de8ebd65ce0988a44d6e9334e031102,48.820864559770676,2.291113436222077,Square du Carrefour de l'Insurrection,2023-09-27T05:19:40.690000Z,False,1.0,1695790740,False,1,1,23,129136818.0,21703,,velib,
6,34,f77c0307a27fab0d3d48420f4127a917,48.860934,2.375841,Square Saint-Ambroise,2023-09-27T05:19:40.614000Z,True,7.0,1695790974,True,1,1,43,66491394.0,11041,['creditcard'],velib,
16,5,893c86b48d2cf0413a16c8b63f79cb89,48.831448892608314,2.2412404417991643,Hameau Fleuri - Marché,2023-09-27T05:19:39.216000Z,False,4.0,1695791050,False,1,1,22,27363137.0,21014,,velib,
8,35,5554d5346800146173e3a83b2a21304f,48.88960028134536,2.3628534749150276,Pajol - Riquet ,2023-09-27T05:19:38.626000Z,True,1.0,1695790970,True,1,1,47,39256416.0,18109,['creditcard'],velib,
15,5,d98bd61b23c66085d4c05141739b43cf,48.8755044846,2.3890327325519,Lassus - Delouvain,2023-09-27T05:19:39.194000Z,False,5.0,1695790931,False,1,1,20,255207155.0,19038,,velib,
8,29,a5fb3ba2ae84664e8ba0746dd6d9def2,48.8943782,2.3415122,Emile Blemont - Poteau,2023-09-27T05:19:39.455000Z,True,2.0,1695791047,True,1,1,39,63769334.0,18029,['creditcard'],velib,
40,6,33c87c4c91c2e7f0157a0ddf4f024f3f,48.8232579,2.2965213,Jean Bleuzen - Square du 11 Novembre,2023-09-27T05:19:38.741000Z,True,5.0,1695790966,True,1,1,49,98132679.0,21706,['creditcard'],velib,
6,15,4e5d45e2645f52e7e1c603bfd3b99569,48.85558642847872,2.408762907764669,Orteaux - Mouraud,2023-09-27T05:19:40.189000Z,False,4.0,1695791039,False,1,1,24,27415469.0,20118,,velib,
20,3,c0ca414cc7641f067e9142aad86cc77c,48.8583666,2.2744515,François Ponsard - La Muette ,2023-09-27T05:19:41.243000Z,True,2.0,1695790996,True,1,1,23,39599631.0,16021,['creditcard'],velib,
23,0,a62b710a59f6b8bef80feaf0d9efdd82,48.87428447542072,2.332976511564311,Provence - Chaussée d'Antin,2023-09-27T05:19:39.743000Z,True,0.0,1695790498,True,1,1,25,84979504.0,9031,['creditcard'],velib,
3,29,b182b8f3c3bf89592cbad0e7118a6d3e,48.856433706943704,2.379020587761426,Ledru-Rollin - Place du Père Chaillet,2023-09-27T05:19:38.915000Z,True,1.0,1695791044,True,1,1,37,82404497.0,11006,['creditcard'],velib,
34,1,43dc0e0b1107cc0a0401a8ae3c4d2550,48.848274111398,2.3292413726449,Assas - Vaugirard,2023-09-27T05:19:41.294000Z,False,1.0,1695790791,False,1,1,35,37936869.0,6030,,velib,
13,2,2a9ebc217a345318014a16d3f70d4b22,48.86500081847653,2.403980836377493,Pelleport - Belgrand,2023-09-27T05:19:40.351000Z,False,2.0,1695790576,False,1,1,15,85120104.0,20023,,velib,
18,14,bf7454ba878d169a278e984513d65bb6,48.891213890844654,2.351288666219873,Ordener - Poissonniers,2023-09-27T05:19:41.064000Z,True,5.0,1695790985,True,1,1,35,54000604.0,18023,['creditcard'],velib,
1,42,018775abbd605664f7b0616bbf3703a8,48.84243457133779,2.2921819612383847,Place Etienne Pernet,2023-09-27T05:19:41.271000Z,True,10.0,1695790994,True,1,1,43,101748685.0,15035,['creditcard'],velib,
10,7,8bed56510cbe8d46a9f696e46e85dc00,48.872089449907,2.3575825989246,Mairie du 10ème,2023-09-27T05:19:39.018000Z,True,4.0,1695791044,True,1,1,19,82396562.0,10009,['creditcard'],velib,
47,5,b86083ce4a62fc53e6bd20dd076e4ba6,48.89859661942376,2.3689722642302513,Porte d'Aubervilliers,2023-09-27T05:19:41.068000Z,False,4.0,1695791052,False,1,1,55,54000608.0,18049,,velib,
6,21,97abd1f80091fc8dd2696ba4cddbd48a,48.87532687671517,2.4241617321968083,Sadi Carnot - François Mitterrand ,2023-09-27T05:19:41.132000Z,False,15.0,1695790902,False,1,1,27,102743096.0,31703,,velib,
26,4,f734bc9d26c1dad71fdf5d392ba8bb0d,48.878255397645,2.3452642187476,Bellefond - Maubeuge,2023-09-27T05:19:38.830000Z,True,0.0,1695790476,True,1,1,31,653059015.0,9117,['creditcard'],velib,
13,37,7c170ff921cdea5c238904095152d77d,48.8482070397636,2.2898658737540245,Théâtre - Lourmel,2023-09-27T05:19:39.211000Z,True,2.0,1695790897,True,1,1,53,101746493.0,15031,['creditcard'],velib,
3,19,1aad4499e2b1016bcf8bbee3814aeb7b,48.89088305227546,2.3688579350709915,Aubervilliers - Curial,2023-09-27T05:19:39.651000Z,True,10.0,1695790934,True,1,1,23,991351798.0,19127,['creditcard'],velib,
25,0,f9a2990400288884bff5981100353804,48.871811807816,2.300238981843,Champs-Elysees - Bassano,2023-09-27T05:19:39.677000Z,True,0.0,1613934558,True,0,0,25,1015246367.0,8116,['creditcard'],velib,
18,16,1dc8f0a127db113cc4c1069f886fa365,48.83850740333351,2.2782871127128606,Balard - Montagne de la Fage,2023-09-27T05:19:41.038000Z,False,0.0,1695791055,False,1,1,36,54000592.0,15070,,velib,
4,14,31a0e7e0c55261923e2025c455d49a41,48.862654215631,2.3670325062844,Place Pasdeloup,2023-09-27T05:19:39.017000Z,True,4.0,1695790921,True,1,1,21,100918666.0,11043,['creditcard'],velib,
13,3,bc90f39857a6b9e2a4b09baf2562b6ab,48.83586772099485,2.33798034198275,Méchain - Faubourg Saint-Jacques,2023-09-27T05:19:39.310000Z,False,1.0,1695790931,False,1,1,16,15409531.0,14112,,velib,
6,15,389eb96c087a32563d11a89445d0f9c1,48.80896378683884,2.4345204234123234,Stade Auguste Delaune,2023-09-27T05:19:39.985000Z,True,1.0,1695790953,True,1,1,21,29327.0,47004,['creditcard'],velib,
38,6,0cbe6d60aa0afa85306243e6848f29e1,48.85132886434057,2.277785539627075,Maison de Radio - France,2023-09-27T05:19:39.966000Z,True,2.0,1695791053,True,1,1,47,15397468.0,16029,['creditcard'],velib,
2,31,9518e77af08d1c9de97c239cf8b88392,48.88667396788626,2.353205569088459,Square Léon,2023-09-27T05:19:38.957000Z,False,16.0,1695791055,False,1,1,33,125469898.0,18008,,velib,
16,0,e3d873abcbe4ec8a51356f040a68d74e,48.87939826447722,2.333709173337285,Jean-Baptiste Pigalle - La Bruyere,2023-09-27T05:19:39.666000Z,True,0.0,1695790525,True,1,1,17,36298.0,9026,['creditcard'],velib,
16,10,44a4b9db28d7ffd265ac2514f9d3570d,48.848280403628806,2.2373420120857195,Transvaal - Charles de Gaulle ,2023-09-27T05:19:38.875000Z,True,2.0,1695791027,True,1,1,27,37903195.0,21001,['creditcard'],velib,
5,25,462e1e678d255391b14241ac6d8389b7,48.89669238777841,2.338023450388167,Belliard - Damrémont,2023-09-27T05:19:39.631000Z,True,3.0,1695791012,True,1,1,34,102313219.0,18033,['creditcard'],velib,
54,6,0a04d34c4d0c49b40f0d8747a792cd7e,48.85286124871689,2.268483570651513,Mozart - Jasmin,2023-09-27T05:19:39.610000Z,True,1.0,1695790991,True,1,1,62,15387809.0,16027,['creditcard'],velib,
25,16,87703ddf1e1a414a10a8d0dc7ab4b647,48.849259262115,2.3917546141943,Boulets - Faubourg Saint-Antoine,2023-09-27T05:19:40.525000Z,False,2.0,1695791010,False,1,1,43,100906707.0,11010,,velib,
7,14,8a8c32c98e07071125d3b1ac06f43e59,48.85386896766491,2.402426162238911,Haies - Réunion,2023-09-27T05:19:40.309000Z,False,3.0,1695790986,False,1,1,22,66491407.0,20116,,velib,
16,1,ed2cb6b3ecf3e8fc2526518c903bf62a,48.84308531746595,2.320263946784738,Maine - Antoine Bourdelle,2023-09-27T05:19:41.299000Z,True,0.0,1695790775,True,1,1,17,27369223.0,15002,['creditcard'],velib,
7,15,862b0065529ede9a4b3473e3d9ea5b95,48.826885843069796,2.2723413258790965,Kléber - Gouverneur Général Eboué,2023-09-27T05:19:40.537000Z,False,2.0,1695790915,False,1,1,24,102336814.0,21310,,velib,
16,9,2f63b8646fd510de01be41619be925fb,48.89034054052266,2.2920683026313786,Président Wilson - Jean Jaures,2023-09-27T05:19:40.668000Z,False,1.0,1695791045,False,1,1,27,484423835.0,23007,,velib,
7,12,f9539f4625a0dc2d32762a8cbfae1f3f,48.85714001395299,2.4043509364128113,Pyrénées - Maraîchers,2023-09-27T05:19:41.093000Z,True,4.0,1695790962,True,1,1,19,54000618.0,20016,['creditcard'],velib,
24,4,56127eb9720adb51b601e8b935e0a44a,48.875352455985,2.2964416444302,Beaujon - Wagram,2023-09-27T05:19:38.598000Z,True,0.0,1695791007,True,1,1,29,224256188.0,8056,['creditcard'],velib,
24,6,b78d65c32354443bd0098fc31bbdaf88,48.870948218595,2.3612049221992,Place Jacques Bonsergent,2023-09-27T05:19:38.603000Z,True,4.0,1695790941,True,1,1,33,210583589.0,10010,['creditcard'],velib,
25,0,708acae760e37ba6e3c808518cf4bab9,48.879960700846226,2.321358695626259,Naples - Rome,2023-09-27T05:19:41.052000Z,True,0.0,1695790910,True,1,1,26,84966359.0,8019,['creditcard'],velib,
11,3,3796cdf0f0ff7b72a9cfa1ed01c60ef0,48.85780291711202,2.277500546942199,Place de Passy,2023-09-27T05:19:40.479000Z,False,3.0,1695790930,False,1,1,15,15291968.0,16043,,velib,
15,22,bfdf67edbee29fe9460c0d7eba541fa5,48.93554324248177,2.3471488058567047,Gare RER de Saint-Denis,2023-09-27T05:19:39.210000Z,True,8.0,1695790964,True,1,1,40,653059879.0,32015,['creditcard'],velib,
25,1,35dde203e8309584f0f623491acb6c67,48.860089892617,2.344057559967,Pont Neuf - Rivoli,2023-09-27T05:19:40.400000Z,True,1.0,1695790495,True,1,1,27,1002059045.0,1117,['creditcard'],velib,
23,6,b1df59f0dfbfc6780429af244453714b,48.880423508429,2.3527636751533,Gare du Nord - Dunkerque,2023-09-27T05:19:40.070000Z,True,2.0,1695791043,True,1,1,29,37647.0,10028,['creditcard'],velib,
25,0,bbbe9c129e66e5d0ea2af6e5f6cffba0,48.859279702476,2.3466217517853,Lavandieres Sainte Opportune - Rivoli,2023-09-27T05:19:40.338000Z,False,0.0,1695790938,False,1,1,27,1002738770.0,1120,,velib,
60,4,e317e1d55f54f9b73f1d64c212c60b75,48.85972615790874,2.325860448181629,Musée d'Orsay,2023-09-27T05:19:39.668000Z,True,3.0,1695790883,True,1,1,65,100863462.0,7007,['creditcard'],velib,
14,1,f1a74a12c54dc5526e2a5fa27cccbb4a,48.868144510482075,2.296149600985935,Bassano -  Iéna,2023-09-27T05:19:41.153000Z,False,1.0,1695790618,False,1,1,15,7304.0,16015,,velib,
16,2,1e2a869341ba89aa51baa14ccc762f81,48.883601088297,2.3332237824798,Clichy - Place Blanche,2023-09-27T05:19:38.877000Z,True,2.0,1695791035,True,1,1,20,126354477.0,18043,['creditcard'],velib,
3,26,72cdc7f2b8b1b5e56951a1d47d34eecf,48.784567029674,2.3979035764933,8 Mai 1945 - 10 Juillet 1940,2023-09-27T05:19:39.981000Z,True,6.0,1695791034,True,1,1,30,1057387136.0,44010,['creditcard'],velib,
3,18,ad3ee1118ade84c9d4a9042d60facb74,48.847648620797,2.3902582749724,Diderot - Pierre Bourdan,2023-09-27T05:19:39.134000Z,False,6.0,1695790762,False,1,1,21,54000572.0,12107,,velib,
28,0,3eabc45c80180c6ff26055d38748820d,48.88109246617963,2.3408224806189537,Lallier - Trudaine ,2023-09-27T05:19:41.065000Z,True,0.0,1695791054,True,1,1,29,42908639.0,9017,['creditcard'],velib,
22,0,92afdd348c1cb23f0ddf66efc9838172,48.880955741648,2.3524305148385,Gare du Nord - Saint-Vincent de Paul,2023-09-27T05:19:40.668000Z,False,0.0,1695791055,False,1,1,24,6298.0,10033,,velib,
43,2,37906585c441a31adf9a7503223f83db,48.887070607581215,2.304111124531457,Pereire - Place de Wagram,2023-09-27T05:19:39.465000Z,True,0.0,1695790655,True,1,1,46,102304517.0,17022,['creditcard'],velib,
22,10,356319d9912eac917f294d7a9255a7a6,48.850735824128805,2.375870111706245,Traversière - Ledru-Rollin,2023-09-27T05:19:40.320000Z,True,2.0,1695790931,True,1,1,34,37920.0,12004,['creditcard'],velib,
35,20,98cbc5337e1ebbce250cb8f3b0c5b58f,48.863287291502,2.3869940266013,Ménilmontant - Père Lachaise,2023-09-27T05:19:41.097000Z,True,5.0,1695790987,True,1,1,56,54000621.0,20030,['creditcard'],velib,
24,1,ac84962093d74f46b5fe4dd89561ca47,48.852575112948415,2.331552766263485,Sabot - Rennes,2023-09-27T05:19:39.769000Z,True,1.0,1695790640,True,1,1,26,100855693.0,6032,['creditcard'],velib,
1,18,97a61a9cd77866e269df86547624c2b5,48.833468517426,2.2858720645308,Palais des Sports,2023-09-27T05:19:39.872000Z,True,3.0,1695791017,True,1,1,22,259977414.0,15107,['creditcard'],velib,
